[
  {
    "id": "1183",
    "name": "Herat",
    "country": "Afghanistan",
    "lat": 34.22,
    "lon": 62.22
  },
  {
    "id": "219",
    "name": "Kabul",
    "country": "Afghanistan",
    "lat": 34.55,
    "lon": 69.22
  },
  {
    "id": "242",
    "name": "Algiers",
    "country": "Algeria",
    "lat": 36.7,
    "lon": 3.22
  },
  {
    "id": "1434",
    "name": "Annaba",
    "country": "Algeria",
    "lat": 36.9,
    "lon": 7.76
  },
  {
    "id": "1435",
    "name": "Bechar",
    "country": "Algeria",
    "lat": 31.61,
    "lon": -2.22
  },
  {
    "id": "1436",
    "name": "Biskra",
    "country": "Algeria",
    "lat": 34.86,
    "lon": 5.73
  },
  {
    "id": "1359",
    "name": "Constantine",
    "country": "Algeria",
    "lat": 36.36,
    "lon": 6.61
  },
  {
    "id": "1437",
    "name": "Djanet",
    "country": "Algeria",
    "lat": 24.55,
    "lon": 9.48
  },
  {
    "id": "1438",
    "name": "Djelfa",
    "country": "Algeria",
    "lat": 34.68,
    "lon": 3.25
  },
  {
    "id": "1360",
    "name": "Ghardaia",
    "country": "Algeria",
    "lat": 32.49,
    "lon": 3.68
  },
  {
    "id": "1361",
    "name": "Oran",
    "country": "Algeria",
    "lat": 35.71,
    "lon": -0.64
  },
  {
    "id": "1439",
    "name": "Setif",
    "country": "Algeria",
    "lat": 36.19,
    "lon": 5.41
  },
  {
    "id": "1362",
    "name": "Tamanrasset",
    "country": "Algeria",
    "lat": 22.79,
    "lon": 5.53
  },
  {
    "id": "1440",
    "name": "Tlemcen",
    "country": "Algeria",
    "lat": 34.8,
    "lon": -1.43
  },
  {
    "id": "261",
    "name": "Luanda",
    "country": "Angola",
    "lat": -8.78,
    "lon": 13.22
  },
  {
    "id": "151",
    "name": "St. John's Antigua",
    "country": "Antigua and Barbuda",
    "lat": 17.12,
    "lon": -61.83
  },
  {
    "id": "858",
    "name": "Bariloche",
    "country": "Argentina",
    "lat": -41.15,
    "lon": -71.17
  },
  {
    "id": "294",
    "name": "Buenos Aires",
    "country": "Argentina",
    "lat": -34.58,
    "lon": -58.48
  },
  {
    "id": "855",
    "name": "Cordoba",
    "country": "Argentina",
    "lat": -31.32,
    "lon": -64.22
  },
  {
    "id": "2205",
    "name": "El Calafate",
    "country": "Argentina",
    "lat": -50.28,
    "lon": -72.05
  },
  {
    "id": "857",
    "name": "Iguazu",
    "country": "Argentina",
    "lat": -25.6,
    "lon": -54.57
  },
  {
    "id": "2206",
    "name": "Mar del Plata",
    "country": "Argentina",
    "lat": -37.933333,
    "lon": -57.583333
  },
  {
    "id": "856",
    "name": "Mendoza",
    "country": "Argentina",
    "lat": -32.83,
    "lon": -68.78
  },
  {
    "id": "2207",
    "name": "Salta",
    "country": "Argentina",
    "lat": -24.85,
    "lon": -65.483333
  },
  {
    "id": "2208",
    "name": "Trelew",
    "country": "Argentina",
    "lat": -43.2,
    "lon": -65.266667
  },
  {
    "id": "859",
    "name": "Ushuaia",
    "country": "Argentina",
    "lat": -54.8,
    "lon": -68.32
  },
  {
    "id": "2079",
    "name": "Dilijan",
    "country": "Armenia",
    "lat": 40.741944,
    "lon": 44.863611
  },
  {
    "id": "2080",
    "name": "Jermuk",
    "country": "Armenia",
    "lat": 39.8325,
    "lon": 45.670278
  },
  {
    "id": "69",
    "name": "Kapan",
    "country": "Armenia",
    "lat": 39.18,
    "lon": 46.38
  },
  {
    "id": "68",
    "name": "Sevan",
    "country": "Armenia",
    "lat": 40.53,
    "lon": 44.93
  },
  {
    "id": "67",
    "name": "Vanadzor",
    "country": "Armenia",
    "lat": 40.8,
    "lon": 44.47
  },
  {
    "id": "66",
    "name": "Yerevan",
    "country": "Armenia",
    "lat": 40.13,
    "lon": 44.47
  },
  {
    "id": "315",
    "name": "Adelaide",
    "country": "Australia",
    "lat": -34.96,
    "lon": 138.53
  },
  {
    "id": "1801",
    "name": "Adventure Bay",
    "country": "Australia",
    "lat": -43.35,
    "lon": 147.32
  },
  {
    "id": "356",
    "name": "Albany",
    "country": "Australia",
    "lat": -34.94,
    "lon": 117.8
  },
  {
    "id": "1649",
    "name": "Albion Park",
    "country": "Australia",
    "lat": -34.56,
    "lon": 150.79
  },
  {
    "id": "1802",
    "name": "Albury",
    "country": "Australia",
    "lat": -36.07,
    "lon": 146.9
  },
  {
    "id": "317",
    "name": "Albury / Wodonga",
    "country": "Australia",
    "lat": -36.07,
    "lon": 146.96
  },
  {
    "id": "323",
    "name": "Alice Springs",
    "country": "Australia",
    "lat": -23.8,
    "lon": 133.89
  },
  {
    "id": "357",
    "name": "Alyangula",
    "country": "Australia",
    "lat": -13.98,
    "lon": 136.43
  },
  {
    "id": "1650",
    "name": "Ararat",
    "country": "Australia",
    "lat": -37.28,
    "lon": 142.98
  },
  {
    "id": "1256",
    "name": "Argyle",
    "country": "Australia",
    "lat": -33.52,
    "lon": 115.79
  },
  {
    "id": "358",
    "name": "Armidale",
    "country": "Australia",
    "lat": -30.52,
    "lon": 151.67
  },
  {
    "id": "359",
    "name": "Augusta",
    "country": "Australia",
    "lat": -34.3133,
    "lon": 115.1675
  },
  {
    "id": "1651",
    "name": "Avalon",
    "country": "Australia",
    "lat": -38.03,
    "lon": 144.48
  },
  {
    "id": "360",
    "name": "Ayr / Home Hill",
    "country": "Australia",
    "lat": -19.62,
    "lon": 147.38
  },
  {
    "id": "361",
    "name": "Bairnsdale",
    "country": "Australia",
    "lat": -37.88,
    "lon": 147.57
  },
  {
    "id": "362",
    "name": "Ballarat",
    "country": "Australia",
    "lat": -37.51,
    "lon": 143.79
  },
  {
    "id": "1652",
    "name": "Ballina",
    "country": "Australia",
    "lat": -28.84,
    "lon": 153.56
  },
  {
    "id": "363",
    "name": "Batemans Bay",
    "country": "Australia",
    "lat": -35.71,
    "lon": 150.18
  },
  {
    "id": "364",
    "name": "Bathurst",
    "country": "Australia",
    "lat": -33.43,
    "lon": 149.56
  },
  {
    "id": "1653",
    "name": "Beechworth",
    "country": "Australia",
    "lat": -36.32,
    "lon": 146.68
  },
  {
    "id": "365",
    "name": "Bega",
    "country": "Australia",
    "lat": -36.68,
    "lon": 149.83
  },
  {
    "id": "1654",
    "name": "Bellerive",
    "country": "Australia",
    "lat": -42.87,
    "lon": 147.37
  },
  {
    "id": "1803",
    "name": "Ben Lomond",
    "country": "Australia",
    "lat": -41.54,
    "lon": 147.67
  },
  {
    "id": "1655",
    "name": "Benalla",
    "country": "Australia",
    "lat": -36.55,
    "lon": 146
  },
  {
    "id": "366",
    "name": "Bendigo",
    "country": "Australia",
    "lat": -36.74,
    "lon": 144.32
  },
  {
    "id": "1804",
    "name": "Bicheno",
    "country": "Australia",
    "lat": -41.87,
    "lon": 148.3
  },
  {
    "id": "1656",
    "name": "Bondi",
    "country": "Australia",
    "lat": -33.88,
    "lon": 151.27
  },
  {
    "id": "368",
    "name": "Borroloola",
    "country": "Australia",
    "lat": -16.08,
    "lon": 136.3
  },
  {
    "id": "1657",
    "name": "Bothwell",
    "country": "Australia",
    "lat": -42.38,
    "lon": 147
  },
  {
    "id": "369",
    "name": "Bourke",
    "country": "Australia",
    "lat": -30.09,
    "lon": 145.94
  },
  {
    "id": "370",
    "name": "Bowen",
    "country": "Australia",
    "lat": -20.02,
    "lon": 148.22
  },
  {
    "id": "371",
    "name": "Bowral",
    "country": "Australia",
    "lat": -34.49,
    "lon": 150.4
  },
  {
    "id": "372",
    "name": "Bridgetown",
    "country": "Australia",
    "lat": -33.96,
    "lon": 116.14
  },
  {
    "id": "1658",
    "name": "Bridport",
    "country": "Australia",
    "lat": -41,
    "lon": 147.39
  },
  {
    "id": "320",
    "name": "Brisbane",
    "country": "Australia",
    "lat": -27.4808,
    "lon": 153.0389
  },
  {
    "id": "2068",
    "name": "Brisbane Airport",
    "country": "Australia",
    "lat": -27.3917,
    "lon": 153.1292
  },
  {
    "id": "1192",
    "name": "Brisbane Bayside",
    "country": "Australia",
    "lat": -27.49,
    "lon": 153.2
  },
  {
    "id": "373",
    "name": "Broken Hill",
    "country": "Australia",
    "lat": -31.98,
    "lon": 141.47
  },
  {
    "id": "374",
    "name": "Broome",
    "country": "Australia",
    "lat": -17.95,
    "lon": 122.23
  },
  {
    "id": "375",
    "name": "Bunbury",
    "country": "Australia",
    "lat": -33.36,
    "lon": 115.64
  },
  {
    "id": "376",
    "name": "Bundaberg",
    "country": "Australia",
    "lat": -24.89,
    "lon": 152.32
  },
  {
    "id": "377",
    "name": "Busselton",
    "country": "Australia",
    "lat": -33.66,
    "lon": 115.34
  },
  {
    "id": "1159",
    "name": "Cabramurra",
    "country": "Australia",
    "lat": -35.93,
    "lon": 148.38
  },
  {
    "id": "299",
    "name": "Cairns",
    "country": "Australia",
    "lat": -16.87,
    "lon": 145.75
  },
  {
    "id": "1660",
    "name": "Campbell Town [NSW]",
    "country": "Australia",
    "lat": -34.06,
    "lon": 150.77
  },
  {
    "id": "1659",
    "name": "Campbell Town [TAS]",
    "country": "Australia",
    "lat": -41.93,
    "lon": 147.49
  },
  {
    "id": "302",
    "name": "Canberra",
    "country": "Australia",
    "lat": -35.308889,
    "lon": 149.200278
  },
  {
    "id": "1805",
    "name": "Canterbury",
    "country": "Australia",
    "lat": -33.91,
    "lon": 151.11
  },
  {
    "id": "378",
    "name": "Cape Byron",
    "country": "Australia",
    "lat": -28.64,
    "lon": 153.63
  },
  {
    "id": "1661",
    "name": "Cape Otway",
    "country": "Australia",
    "lat": -38.86,
    "lon": 143.51
  },
  {
    "id": "379",
    "name": "Carnarvon",
    "country": "Australia",
    "lat": -24.88,
    "lon": 113.67
  },
  {
    "id": "1662",
    "name": "Casterton",
    "country": "Australia",
    "lat": -37.59,
    "lon": 141.41
  },
  {
    "id": "1663",
    "name": "Castlemaine",
    "country": "Australia",
    "lat": -37.08,
    "lon": 144.24
  },
  {
    "id": "380",
    "name": "Ceduna",
    "country": "Australia",
    "lat": -32.13,
    "lon": 133.71
  },
  {
    "id": "1664",
    "name": "Cerberus",
    "country": "Australia",
    "lat": -38.36,
    "lon": 145.18
  },
  {
    "id": "1806",
    "name": "Cessnock",
    "country": "Australia",
    "lat": -32.79,
    "lon": 151.34
  },
  {
    "id": "381",
    "name": "Charleville",
    "country": "Australia",
    "lat": -26.41,
    "lon": 146.26
  },
  {
    "id": "382",
    "name": "Charters Towers",
    "country": "Australia",
    "lat": -20.04,
    "lon": 146.27
  },
  {
    "id": "681",
    "name": "Christmas Island",
    "country": "Australia",
    "lat": -10.45,
    "lon": 105.69
  },
  {
    "id": "383",
    "name": "Clare",
    "country": "Australia",
    "lat": -33.84,
    "lon": 138.61
  },
  {
    "id": "384",
    "name": "Clermont",
    "country": "Australia",
    "lat": -22.83,
    "lon": 147.64
  },
  {
    "id": "385",
    "name": "Cobar",
    "country": "Australia",
    "lat": -31.49,
    "lon": 145.83
  },
  {
    "id": "683",
    "name": "Cocos Island",
    "country": "Australia",
    "lat": -12.16,
    "lon": 96.87
  },
  {
    "id": "386",
    "name": "Coffs Harbour",
    "country": "Australia",
    "lat": -30.31,
    "lon": 153.12
  },
  {
    "id": "387",
    "name": "Colac",
    "country": "Australia",
    "lat": -38.34,
    "lon": 143.59
  },
  {
    "id": "1807",
    "name": "Coles Bay",
    "country": "Australia",
    "lat": -42.12,
    "lon": 148.28
  },
  {
    "id": "388",
    "name": "Collie",
    "country": "Australia",
    "lat": -33.36,
    "lon": 116.15
  },
  {
    "id": "1665",
    "name": "Combienbar",
    "country": "Australia",
    "lat": -37.34,
    "lon": 149.02
  },
  {
    "id": "389",
    "name": "Coober Pedy",
    "country": "Australia",
    "lat": -29.01,
    "lon": 134.76
  },
  {
    "id": "390",
    "name": "Cooma",
    "country": "Australia",
    "lat": -36.23,
    "lon": 149.12
  },
  {
    "id": "391",
    "name": "Coonawarra",
    "country": "Australia",
    "lat": -37.29,
    "lon": 140.83
  },
  {
    "id": "1666",
    "name": "Corryong",
    "country": "Australia",
    "lat": -36.18,
    "lon": 147.89
  },
  {
    "id": "1667",
    "name": "Cradle Valley",
    "country": "Australia",
    "lat": -41.58,
    "lon": 145.94
  },
  {
    "id": "1668",
    "name": "Cranbourne",
    "country": "Australia",
    "lat": -38.13,
    "lon": 145.26
  },
  {
    "id": "1669",
    "name": "Cressy",
    "country": "Australia",
    "lat": -41.73,
    "lon": 147.08
  },
  {
    "id": "1670",
    "name": "Currie",
    "country": "Australia",
    "lat": -39.93,
    "lon": 143.85
  },
  {
    "id": "1808",
    "name": "Cygnet",
    "country": "Australia",
    "lat": -43.15,
    "lon": 147.07
  },
  {
    "id": "392",
    "name": "Dalby",
    "country": "Australia",
    "lat": -27.17,
    "lon": 151.27
  },
  {
    "id": "684",
    "name": "Dalwallinu",
    "country": "Australia",
    "lat": -30.27,
    "lon": 116.66
  },
  {
    "id": "1671",
    "name": "Dartmouth",
    "country": "Australia",
    "lat": -36.54,
    "lon": 147.5
  },
  {
    "id": "322",
    "name": "Darwin",
    "country": "Australia",
    "lat": -12.42,
    "lon": 130.89
  },
  {
    "id": "1086",
    "name": "Darwin Rural",
    "country": "Australia",
    "lat": -12.42,
    "lon": 130.89
  },
  {
    "id": "1672",
    "name": "Deloraine",
    "country": "Australia",
    "lat": -41.52,
    "lon": 146.65
  },
  {
    "id": "1218",
    "name": "Denham",
    "country": "Australia",
    "lat": -25.93,
    "lon": 113.53
  },
  {
    "id": "393",
    "name": "Deniliquin",
    "country": "Australia",
    "lat": -35.55,
    "lon": 144.95
  },
  {
    "id": "367",
    "name": "Derby",
    "country": "Australia",
    "lat": -17.37,
    "lon": 123.66
  },
  {
    "id": "394",
    "name": "Devonport",
    "country": "Australia",
    "lat": -41.17,
    "lon": 146.43
  },
  {
    "id": "1809",
    "name": "Dover",
    "country": "Australia",
    "lat": -43.32,
    "lon": 147.01
  },
  {
    "id": "395",
    "name": "Dubbo",
    "country": "Australia",
    "lat": -32.22,
    "lon": 148.58
  },
  {
    "id": "396",
    "name": "Echuca",
    "country": "Australia",
    "lat": -36.17,
    "lon": 144.76
  },
  {
    "id": "397",
    "name": "Elizabeth",
    "country": "Australia",
    "lat": -34.73,
    "lon": 138.65
  },
  {
    "id": "398",
    "name": "Emerald",
    "country": "Australia",
    "lat": -23.57,
    "lon": 148.18
  },
  {
    "id": "399",
    "name": "Esperance",
    "country": "Australia",
    "lat": -33.83,
    "lon": 121.89
  },
  {
    "id": "400",
    "name": "Eucla",
    "country": "Australia",
    "lat": -31.68,
    "lon": 128.88
  },
  {
    "id": "1810",
    "name": "Evandale",
    "country": "Australia",
    "lat": -41.57,
    "lon": 147.24
  },
  {
    "id": "401",
    "name": "Exmouth",
    "country": "Australia",
    "lat": -22.24,
    "lon": 114.09
  },
  {
    "id": "1673",
    "name": "Falls Creek",
    "country": "Australia",
    "lat": -36.87,
    "lon": 147.28
  },
  {
    "id": "1811",
    "name": "Fingal",
    "country": "Australia",
    "lat": -41.64,
    "lon": 147.97
  },
  {
    "id": "1214",
    "name": "Fitzroy Crossing",
    "country": "Australia",
    "lat": -18.19,
    "lon": 125.57
  },
  {
    "id": "1320",
    "name": "Forster",
    "country": "Australia",
    "lat": -32.17,
    "lon": 152.52
  },
  {
    "id": "1812",
    "name": "Frankston",
    "country": "Australia",
    "lat": -38.15,
    "lon": 145.12
  },
  {
    "id": "1674",
    "name": "Gabo Island",
    "country": "Australia",
    "lat": -37.57,
    "lon": 149.92
  },
  {
    "id": "402",
    "name": "Geelong",
    "country": "Australia",
    "lat": -38.16,
    "lon": 144.42
  },
  {
    "id": "1813",
    "name": "Geeveston",
    "country": "Australia",
    "lat": -43.16,
    "lon": 146.92
  },
  {
    "id": "1675",
    "name": "George Town",
    "country": "Australia",
    "lat": -41.1,
    "lon": 146.82
  },
  {
    "id": "403",
    "name": "Geraldton",
    "country": "Australia",
    "lat": -28.8,
    "lon": 114.7
  },
  {
    "id": "404",
    "name": "Gladstone",
    "country": "Australia",
    "lat": -23.86,
    "lon": 151.26
  },
  {
    "id": "1319",
    "name": "Glen Innes",
    "country": "Australia",
    "lat": -29.73,
    "lon": 151.73
  },
  {
    "id": "1676",
    "name": "Glenelg",
    "country": "Australia",
    "lat": -34.98,
    "lon": 138.52
  },
  {
    "id": "1677",
    "name": "Glenorchy",
    "country": "Australia",
    "lat": -42.83,
    "lon": 147.28
  },
  {
    "id": "405",
    "name": "Gold Coast",
    "country": "Australia",
    "lat": -27.99,
    "lon": 153.41
  },
  {
    "id": "406",
    "name": "Goondiwindi",
    "country": "Australia",
    "lat": -28.52,
    "lon": 150.33
  },
  {
    "id": "407",
    "name": "Gosford",
    "country": "Australia",
    "lat": -33.39,
    "lon": 151.33
  },
  {
    "id": "408",
    "name": "Goulburn",
    "country": "Australia",
    "lat": -34.72,
    "lon": 149.74
  },
  {
    "id": "409",
    "name": "Grafton",
    "country": "Australia",
    "lat": -29.68,
    "lon": 152.93
  },
  {
    "id": "410",
    "name": "Griffith",
    "country": "Australia",
    "lat": -34.25,
    "lon": 146.07
  },
  {
    "id": "411",
    "name": "Gympie",
    "country": "Australia",
    "lat": -26.18,
    "lon": 152.64
  },
  {
    "id": "412",
    "name": "Halls Creek",
    "country": "Australia",
    "lat": -18.23,
    "lon": 127.66
  },
  {
    "id": "413",
    "name": "Hamilton",
    "country": "Australia",
    "lat": -37.65,
    "lon": 142.06
  },
  {
    "id": "1678",
    "name": "Hay",
    "country": "Australia",
    "lat": -34.52,
    "lon": 144.85
  },
  {
    "id": "414",
    "name": "Hervey Bay",
    "country": "Australia",
    "lat": -25.29,
    "lon": 152.82
  },
  {
    "id": "1679",
    "name": "Heywood",
    "country": "Australia",
    "lat": -38.14,
    "lon": 141.63
  },
  {
    "id": "316",
    "name": "Hobart",
    "country": "Australia",
    "lat": -42.89,
    "lon": 147.33
  },
  {
    "id": "415",
    "name": "Horsham",
    "country": "Australia",
    "lat": -36.65,
    "lon": 142.1
  },
  {
    "id": "1680",
    "name": "Huonville",
    "country": "Australia",
    "lat": -43.02,
    "lon": 147.05
  },
  {
    "id": "416",
    "name": "Ingham",
    "country": "Australia",
    "lat": -18.65,
    "lon": 146.18
  },
  {
    "id": "417",
    "name": "Innisfail",
    "country": "Australia",
    "lat": -17.53,
    "lon": 146.03
  },
  {
    "id": "418",
    "name": "Inverell",
    "country": "Australia",
    "lat": -29.78,
    "lon": 151.11
  },
  {
    "id": "419",
    "name": "Ipswich",
    "country": "Australia",
    "lat": -27.62,
    "lon": 152.76
  },
  {
    "id": "1318",
    "name": "Ivanhoe",
    "country": "Australia",
    "lat": -32.9,
    "lon": 144.28
  },
  {
    "id": "420",
    "name": "Jabiru",
    "country": "Australia",
    "lat": -12.66,
    "lon": 132.89
  },
  {
    "id": "1681",
    "name": "Jindabyne",
    "country": "Australia",
    "lat": -36.42,
    "lon": 148.62
  },
  {
    "id": "421",
    "name": "Kalbarri",
    "country": "Australia",
    "lat": -27.71,
    "lon": 114.16
  },
  {
    "id": "422",
    "name": "Kalgoorlie",
    "country": "Australia",
    "lat": -30.79,
    "lon": 121.45
  },
  {
    "id": "1215",
    "name": "Kalumburu",
    "country": "Australia",
    "lat": -14.3,
    "lon": 126.64
  },
  {
    "id": "423",
    "name": "Karratha",
    "country": "Australia",
    "lat": -20.71,
    "lon": 116.77
  },
  {
    "id": "424",
    "name": "Katanning",
    "country": "Australia",
    "lat": -33.69,
    "lon": 117.56
  },
  {
    "id": "425",
    "name": "Katherine",
    "country": "Australia",
    "lat": -14.44,
    "lon": 132.27
  },
  {
    "id": "426",
    "name": "Katoomba",
    "country": "Australia",
    "lat": -33.71,
    "lon": 150.3
  },
  {
    "id": "427",
    "name": "Keith",
    "country": "Australia",
    "lat": -36.1,
    "lon": 140.06
  },
  {
    "id": "428",
    "name": "Kempsey",
    "country": "Australia",
    "lat": -31.08,
    "lon": 152.82
  },
  {
    "id": "1682",
    "name": "Kerang",
    "country": "Australia",
    "lat": -35.72,
    "lon": 143.92
  },
  {
    "id": "1683",
    "name": "Kilmore Gap",
    "country": "Australia",
    "lat": -37.38,
    "lon": 144.97
  },
  {
    "id": "429",
    "name": "Kingaroy",
    "country": "Australia",
    "lat": -26.55,
    "lon": 151.85
  },
  {
    "id": "430",
    "name": "Kingscote",
    "country": "Australia",
    "lat": -35.66,
    "lon": 137.64
  },
  {
    "id": "1684",
    "name": "Kingston",
    "country": "Australia",
    "lat": -42.97,
    "lon": 147.31
  },
  {
    "id": "431",
    "name": "Kununurra",
    "country": "Australia",
    "lat": -15.78,
    "lon": 128.71
  },
  {
    "id": "515",
    "name": "Kurnell",
    "country": "Australia",
    "lat": -34.02,
    "lon": 151.21
  },
  {
    "id": "1685",
    "name": "Kyabram",
    "country": "Australia",
    "lat": -36.34,
    "lon": 145.06
  },
  {
    "id": "432",
    "name": "Kyancutta",
    "country": "Australia",
    "lat": -33.13,
    "lon": 135.55
  },
  {
    "id": "1686",
    "name": "Lajamanu",
    "country": "Australia",
    "lat": -18.33,
    "lon": 130.64
  },
  {
    "id": "1687",
    "name": "Lake Eildon",
    "country": "Australia",
    "lat": -37.23,
    "lon": 145.91
  },
  {
    "id": "433",
    "name": "Lake Grace",
    "country": "Australia",
    "lat": -33.1,
    "lon": 118.46
  },
  {
    "id": "1688",
    "name": "Lake St Clair",
    "country": "Australia",
    "lat": -42.12,
    "lon": 146.18
  },
  {
    "id": "1689",
    "name": "Lakes Entrance",
    "country": "Australia",
    "lat": -37.87,
    "lon": 148.01
  },
  {
    "id": "1814",
    "name": "Latrobe",
    "country": "Australia",
    "lat": -41.23,
    "lon": 146.41
  },
  {
    "id": "434",
    "name": "Latrobe Valley",
    "country": "Australia",
    "lat": -38.19,
    "lon": 146.33
  },
  {
    "id": "435",
    "name": "Launceston",
    "country": "Australia",
    "lat": -41.54,
    "lon": 147.2
  },
  {
    "id": "1257",
    "name": "Laverton [VIC]",
    "country": "Australia",
    "lat": -37.87,
    "lon": 144.76
  },
  {
    "id": "436",
    "name": "Laverton [WA]",
    "country": "Australia",
    "lat": -28.63,
    "lon": 122.41
  },
  {
    "id": "437",
    "name": "Leigh Creek",
    "country": "Australia",
    "lat": -30.6,
    "lon": 138.42
  },
  {
    "id": "438",
    "name": "Leinster",
    "country": "Australia",
    "lat": -27.8386,
    "lon": 120.7031
  },
  {
    "id": "1259",
    "name": "Leonora",
    "country": "Australia",
    "lat": -28.88,
    "lon": 121.33
  },
  {
    "id": "1815",
    "name": "Liawenee",
    "country": "Australia",
    "lat": -41.9,
    "lon": 146.67
  },
  {
    "id": "439",
    "name": "Lismore",
    "country": "Australia",
    "lat": -28.81,
    "lon": 153.26
  },
  {
    "id": "687",
    "name": "Lithgow",
    "country": "Australia",
    "lat": -33.48,
    "lon": 150.16
  },
  {
    "id": "440",
    "name": "Liverpool",
    "country": "Australia",
    "lat": -33.93,
    "lon": 150.91
  },
  {
    "id": "1690",
    "name": "Longerenong",
    "country": "Australia",
    "lat": -36.67,
    "lon": 142.3
  },
  {
    "id": "441",
    "name": "Longreach",
    "country": "Australia",
    "lat": -23.44,
    "lon": 144.28
  },
  {
    "id": "442",
    "name": "Lord Howe Island",
    "country": "Australia",
    "lat": -31.54,
    "lon": 159.08
  },
  {
    "id": "443",
    "name": "Mackay",
    "country": "Australia",
    "lat": -21.12,
    "lon": 149.22
  },
  {
    "id": "445",
    "name": "Maitland",
    "country": "Australia",
    "lat": -34.38,
    "lon": 137.67
  },
  {
    "id": "444",
    "name": "Maitland and Cessnock",
    "country": "Australia",
    "lat": -32.81,
    "lon": 151.35
  },
  {
    "id": "1691",
    "name": "Mallacoota",
    "country": "Australia",
    "lat": -37.56,
    "lon": 149.75
  },
  {
    "id": "446",
    "name": "Mandurah",
    "country": "Australia",
    "lat": -32.5,
    "lon": 115.77
  },
  {
    "id": "1692",
    "name": "Maningrida",
    "country": "Australia",
    "lat": -12.05,
    "lon": 134.23
  },
  {
    "id": "447",
    "name": "Manjimup",
    "country": "Australia",
    "lat": -34.25,
    "lon": 116.14
  },
  {
    "id": "1251",
    "name": "Marble Bar",
    "country": "Australia",
    "lat": -21.12,
    "lon": 119.68
  },
  {
    "id": "448",
    "name": "Mareeba",
    "country": "Australia",
    "lat": -17,
    "lon": 145.43
  },
  {
    "id": "449",
    "name": "Margaret River",
    "country": "Australia",
    "lat": -33.95,
    "lon": 115.07
  },
  {
    "id": "1816",
    "name": "Marrawah",
    "country": "Australia",
    "lat": -40.91,
    "lon": 144.71
  },
  {
    "id": "450",
    "name": "Maryborough",
    "country": "Australia",
    "lat": -25.52,
    "lon": 152.71
  },
  {
    "id": "1694",
    "name": "Maryborough [VIC]",
    "country": "Australia",
    "lat": -37.06,
    "lon": 143.73
  },
  {
    "id": "1817",
    "name": "Maydena",
    "country": "Australia",
    "lat": -42.76,
    "lon": 146.62
  },
  {
    "id": "451",
    "name": "Meekatharra",
    "country": "Australia",
    "lat": -26.61,
    "lon": 118.54
  },
  {
    "id": "1695",
    "name": "Melaleuca",
    "country": "Australia",
    "lat": -43.45,
    "lon": 146.15
  },
  {
    "id": "301",
    "name": "Melbourne",
    "country": "Australia",
    "lat": -37.81,
    "lon": 144.97
  },
  {
    "id": "1317",
    "name": "Merimbula",
    "country": "Australia",
    "lat": -36.9,
    "lon": 149.9
  },
  {
    "id": "452",
    "name": "Merredin",
    "country": "Australia",
    "lat": -31.48,
    "lon": 118.28
  },
  {
    "id": "453",
    "name": "Mildura",
    "country": "Australia",
    "lat": -34.23,
    "lon": 142.08
  },
  {
    "id": "454",
    "name": "Moora",
    "country": "Australia",
    "lat": -30.64,
    "lon": 116.01
  },
  {
    "id": "1696",
    "name": "Moorabbin",
    "country": "Australia",
    "lat": -37.94,
    "lon": 145.04
  },
  {
    "id": "455",
    "name": "Moranbah",
    "country": "Australia",
    "lat": -21.99,
    "lon": 148.03
  },
  {
    "id": "456",
    "name": "Morawa",
    "country": "Australia",
    "lat": -29.21,
    "lon": 116.01
  },
  {
    "id": "457",
    "name": "Moree",
    "country": "Australia",
    "lat": -29.48,
    "lon": 149.84
  },
  {
    "id": "1697",
    "name": "Mornington",
    "country": "Australia",
    "lat": -38.24,
    "lon": 145.07
  },
  {
    "id": "458",
    "name": "Mornington Peninsula",
    "country": "Australia",
    "lat": -38.24,
    "lon": 145.07
  },
  {
    "id": "1698",
    "name": "Mortlake",
    "country": "Australia",
    "lat": -38.08,
    "lon": 142.77
  },
  {
    "id": "1699",
    "name": "Mount Barker",
    "country": "Australia",
    "lat": -35.06,
    "lon": 138.85
  },
  {
    "id": "1700",
    "name": "Mount Baw Baw",
    "country": "Australia",
    "lat": -37.84,
    "lon": 146.27
  },
  {
    "id": "1701",
    "name": "Mount Buller",
    "country": "Australia",
    "lat": -37.15,
    "lon": 146.44
  },
  {
    "id": "1702",
    "name": "Mount Dandenong",
    "country": "Australia",
    "lat": -37.83,
    "lon": 145.35
  },
  {
    "id": "1818",
    "name": "Mount Field",
    "country": "Australia",
    "lat": -42.69,
    "lon": 146.59
  },
  {
    "id": "1703",
    "name": "Mount Gambier",
    "country": "Australia",
    "lat": -37.82,
    "lon": 140.78
  },
  {
    "id": "1704",
    "name": "Mount Hotham",
    "country": "Australia",
    "lat": -36.98,
    "lon": 147.13
  },
  {
    "id": "1705",
    "name": "Mount Isa",
    "country": "Australia",
    "lat": -20.68,
    "lon": 139.49
  },
  {
    "id": "1706",
    "name": "Mount Moornapa",
    "country": "Australia",
    "lat": -37.75,
    "lon": 147.14
  },
  {
    "id": "1707",
    "name": "Mount Nowa Nowa",
    "country": "Australia",
    "lat": -37.69,
    "lon": 148.09
  },
  {
    "id": "1708",
    "name": "Mount Wellington",
    "country": "Australia",
    "lat": -42.9,
    "lon": 147.24
  },
  {
    "id": "1709",
    "name": "Mowbray",
    "country": "Australia",
    "lat": -41.4,
    "lon": 147.14
  },
  {
    "id": "464",
    "name": "Mudgee",
    "country": "Australia",
    "lat": -32.6,
    "lon": 149.6
  },
  {
    "id": "465",
    "name": "Murray Bridge",
    "country": "Australia",
    "lat": -35.12,
    "lon": 139.27
  },
  {
    "id": "466",
    "name": "Naracoorte",
    "country": "Australia",
    "lat": -36.96,
    "lon": 140.74
  },
  {
    "id": "1316",
    "name": "Narrabri",
    "country": "Australia",
    "lat": -30.33,
    "lon": 149.75
  },
  {
    "id": "467",
    "name": "Narrogin",
    "country": "Australia",
    "lat": -32.93,
    "lon": 117.18
  },
  {
    "id": "1710",
    "name": "New Norfolk",
    "country": "Australia",
    "lat": -42.78,
    "lon": 147.05
  },
  {
    "id": "319",
    "name": "Newcastle",
    "country": "Australia",
    "lat": -32.92,
    "lon": 151.8
  },
  {
    "id": "468",
    "name": "Newman",
    "country": "Australia",
    "lat": -23.37,
    "lon": 119.73
  },
  {
    "id": "1711",
    "name": "Nhill",
    "country": "Australia",
    "lat": -36.33,
    "lon": 141.64
  },
  {
    "id": "469",
    "name": "Nhulunbuy",
    "country": "Australia",
    "lat": -12.27,
    "lon": 136.82
  },
  {
    "id": "470",
    "name": "Noarlunga",
    "country": "Australia",
    "lat": -35.16,
    "lon": 138.51
  },
  {
    "id": "471",
    "name": "Norfolk Island",
    "country": "Australia",
    "lat": -29.04,
    "lon": 167.94
  },
  {
    "id": "1712",
    "name": "Normanton",
    "country": "Australia",
    "lat": -17.69,
    "lon": 141.07
  },
  {
    "id": "1252",
    "name": "Norseman",
    "country": "Australia",
    "lat": -32.2,
    "lon": 121.78
  },
  {
    "id": "472",
    "name": "Northam",
    "country": "Australia",
    "lat": -31.64,
    "lon": 116.67
  },
  {
    "id": "473",
    "name": "Nowra",
    "country": "Australia",
    "lat": -34.94,
    "lon": 150.55
  },
  {
    "id": "474",
    "name": "Nuriootpa",
    "country": "Australia",
    "lat": -34.48,
    "lon": 139
  },
  {
    "id": "1713",
    "name": "Oatlands",
    "country": "Australia",
    "lat": -42.3,
    "lon": 147.37
  },
  {
    "id": "1216",
    "name": "Onslow",
    "country": "Australia",
    "lat": -21.63,
    "lon": 115.12
  },
  {
    "id": "475",
    "name": "Orange",
    "country": "Australia",
    "lat": -33.38,
    "lon": 149.12
  },
  {
    "id": "476",
    "name": "Orbost",
    "country": "Australia",
    "lat": -37.69,
    "lon": 148.46
  },
  {
    "id": "1714",
    "name": "Orford",
    "country": "Australia",
    "lat": -42.55,
    "lon": 147.88
  },
  {
    "id": "1819",
    "name": "Ouse",
    "country": "Australia",
    "lat": -42.48,
    "lon": 146.71
  },
  {
    "id": "1715",
    "name": "Ouyen",
    "country": "Australia",
    "lat": -35.07,
    "lon": 142.32
  },
  {
    "id": "477",
    "name": "Paraburdoo",
    "country": "Australia",
    "lat": -23.17,
    "lon": 117.75
  },
  {
    "id": "478",
    "name": "Parkes",
    "country": "Australia",
    "lat": -33.14,
    "lon": 148.16
  },
  {
    "id": "1313",
    "name": "Parramatta",
    "country": "Australia",
    "lat": -33.8,
    "lon": 151.02
  },
  {
    "id": "1820",
    "name": "Penguin",
    "country": "Australia",
    "lat": -41.11,
    "lon": 146.07
  },
  {
    "id": "1160",
    "name": "Penrith",
    "country": "Australia",
    "lat": -33.72,
    "lon": 150.67
  },
  {
    "id": "1161",
    "name": "Perisher Valley",
    "country": "Australia",
    "lat": -36.4,
    "lon": 148.4
  },
  {
    "id": "314",
    "name": "Perth",
    "country": "Australia",
    "lat": -31.93,
    "lon": 115.98
  },
  {
    "id": "1716",
    "name": "Phillip Island",
    "country": "Australia",
    "lat": -38.51,
    "lon": 145.15
  },
  {
    "id": "1717",
    "name": "Pirlangimpi",
    "country": "Australia",
    "lat": -11.4,
    "lon": 130.42
  },
  {
    "id": "1718",
    "name": "Point Hicks",
    "country": "Australia",
    "lat": -37.8,
    "lon": 149.27
  },
  {
    "id": "1719",
    "name": "Port Arthur",
    "country": "Australia",
    "lat": -43.14,
    "lon": 147.85
  },
  {
    "id": "479",
    "name": "Port Augusta",
    "country": "Australia",
    "lat": -32.53,
    "lon": 137.79
  },
  {
    "id": "480",
    "name": "Port Hedland",
    "country": "Australia",
    "lat": -20.37,
    "lon": 118.63
  },
  {
    "id": "481",
    "name": "Port Lincoln",
    "country": "Australia",
    "lat": -34.72,
    "lon": 135.86
  },
  {
    "id": "482",
    "name": "Port Macquarie",
    "country": "Australia",
    "lat": -31.44,
    "lon": 152.92
  },
  {
    "id": "483",
    "name": "Port Pirie",
    "country": "Australia",
    "lat": -33.17,
    "lon": 138.01
  },
  {
    "id": "1720",
    "name": "Portland",
    "country": "Australia",
    "lat": -38.34,
    "lon": 141.6
  },
  {
    "id": "1721",
    "name": "Prospect",
    "country": "Australia",
    "lat": -41.46,
    "lon": 147.13
  },
  {
    "id": "1722",
    "name": "Queenstown",
    "country": "Australia",
    "lat": -42.08,
    "lon": 145.55
  },
  {
    "id": "484",
    "name": "Ravensthorpe",
    "country": "Australia",
    "lat": -33.58,
    "lon": 120.04
  },
  {
    "id": "1723",
    "name": "Redesdale",
    "country": "Australia",
    "lat": -37.02,
    "lon": 144.52
  },
  {
    "id": "485",
    "name": "Renmark",
    "country": "Australia",
    "lat": -34.17,
    "lon": 140.75
  },
  {
    "id": "1724",
    "name": "Rhyll",
    "country": "Australia",
    "lat": -38.46,
    "lon": 145.31
  },
  {
    "id": "1725",
    "name": "Richmond [NSW]",
    "country": "Australia",
    "lat": -33.6,
    "lon": 150.78
  },
  {
    "id": "1726",
    "name": "Richmond [TAS]",
    "country": "Australia",
    "lat": -42.73,
    "lon": 147.44
  },
  {
    "id": "1253",
    "name": "Robe",
    "country": "Australia",
    "lat": -37.16,
    "lon": 139.76
  },
  {
    "id": "487",
    "name": "Rockhampton",
    "country": "Australia",
    "lat": -23.38,
    "lon": 150.48
  },
  {
    "id": "1210",
    "name": "Roebourne",
    "country": "Australia",
    "lat": -20.78,
    "lon": 117.15
  },
  {
    "id": "488",
    "name": "Roma",
    "country": "Australia",
    "lat": -26.55,
    "lon": 148.78
  },
  {
    "id": "1727",
    "name": "Rosebery",
    "country": "Australia",
    "lat": -41.78,
    "lon": 145.53
  },
  {
    "id": "1728",
    "name": "Ross",
    "country": "Australia",
    "lat": -42.03,
    "lon": 147.5
  },
  {
    "id": "489",
    "name": "Roxby Downs",
    "country": "Australia",
    "lat": -30.45,
    "lon": 137.17
  },
  {
    "id": "1729",
    "name": "Rutherglen",
    "country": "Australia",
    "lat": -36.06,
    "lon": 146.46
  },
  {
    "id": "490",
    "name": "Sale",
    "country": "Australia",
    "lat": -38.11,
    "lon": 147.13
  },
  {
    "id": "491",
    "name": "Scone",
    "country": "Australia",
    "lat": -32.06,
    "lon": 150.93
  },
  {
    "id": "1193",
    "name": "Scoresby",
    "country": "Australia",
    "lat": -37.9,
    "lon": 145.23
  },
  {
    "id": "1730",
    "name": "Scottsdale",
    "country": "Australia",
    "lat": -41.16,
    "lon": 147.51
  },
  {
    "id": "492",
    "name": "Seymour",
    "country": "Australia",
    "lat": -37.03,
    "lon": 145.15
  },
  {
    "id": "1821",
    "name": "Sheffield",
    "country": "Australia",
    "lat": -41.39,
    "lon": 146.32
  },
  {
    "id": "1731",
    "name": "Sheoaks",
    "country": "Australia",
    "lat": -37.91,
    "lon": 144.13
  },
  {
    "id": "493",
    "name": "Shepparton",
    "country": "Australia",
    "lat": -36.38,
    "lon": 145.42
  },
  {
    "id": "1322",
    "name": "Singleton",
    "country": "Australia",
    "lat": -32.57,
    "lon": 151.15
  },
  {
    "id": "1732",
    "name": "Smithton",
    "country": "Australia",
    "lat": -40.84,
    "lon": 145.12
  },
  {
    "id": "1822",
    "name": "Sorell",
    "country": "Australia",
    "lat": -42.78,
    "lon": 147.56
  },
  {
    "id": "1315",
    "name": "Springwood",
    "country": "Australia",
    "lat": -27.61,
    "lon": 153.14
  },
  {
    "id": "494",
    "name": "St Helens",
    "country": "Australia",
    "lat": -41.32,
    "lon": 148.25
  },
  {
    "id": "1823",
    "name": "St Marys",
    "country": "Australia",
    "lat": -41.58,
    "lon": 148.18
  },
  {
    "id": "495",
    "name": "Strahan Town",
    "country": "Australia",
    "lat": -42.16,
    "lon": 145.29
  },
  {
    "id": "1733",
    "name": "Strathbogie",
    "country": "Australia",
    "lat": -36.85,
    "lon": 145.73
  },
  {
    "id": "1824",
    "name": "Strathgordon",
    "country": "Australia",
    "lat": -42.77,
    "lon": 146.05
  },
  {
    "id": "496",
    "name": "Sunshine Coast",
    "country": "Australia",
    "lat": -26.8,
    "lon": 153.15
  },
  {
    "id": "498",
    "name": "Swan Hill",
    "country": "Australia",
    "lat": -35.34,
    "lon": 143.55
  },
  {
    "id": "497",
    "name": "Swansea",
    "country": "Australia",
    "lat": -42.13,
    "lon": 148.08
  },
  {
    "id": "300",
    "name": "Sydney",
    "country": "Australia",
    "lat": -33.86,
    "lon": 151.21
  },
  {
    "id": "499",
    "name": "Tamworth",
    "country": "Australia",
    "lat": -31.09,
    "lon": 150.85
  },
  {
    "id": "500",
    "name": "Taree",
    "country": "Australia",
    "lat": -31.9,
    "lon": 152.48
  },
  {
    "id": "1734",
    "name": "Tarraleah",
    "country": "Australia",
    "lat": -42.3,
    "lon": 146.45
  },
  {
    "id": "1735",
    "name": "Tatura",
    "country": "Australia",
    "lat": -36.44,
    "lon": 145.27
  },
  {
    "id": "501",
    "name": "Tennant Creek",
    "country": "Australia",
    "lat": -19.64,
    "lon": 134.18
  },
  {
    "id": "1314",
    "name": "Terrey Hills",
    "country": "Australia",
    "lat": -33.68,
    "lon": 151.23
  },
  {
    "id": "1825",
    "name": "The Corner",
    "country": "Australia",
    "lat": -40.37,
    "lon": 148.03
  },
  {
    "id": "1736",
    "name": "The Entrance",
    "country": "Australia",
    "lat": -33.35,
    "lon": 151.5
  },
  {
    "id": "1162",
    "name": "Thredbo",
    "country": "Australia",
    "lat": -36.5,
    "lon": 148.3
  },
  {
    "id": "1737",
    "name": "Thursday Island",
    "country": "Australia",
    "lat": -10.58,
    "lon": 142.22
  },
  {
    "id": "1738",
    "name": "Tibooburra",
    "country": "Australia",
    "lat": -29.43,
    "lon": 142.01
  },
  {
    "id": "1260",
    "name": "Tom Price",
    "country": "Australia",
    "lat": -22.7,
    "lon": 117.79
  },
  {
    "id": "502",
    "name": "Toowoomba",
    "country": "Australia",
    "lat": -27.58,
    "lon": 151.93
  },
  {
    "id": "1739",
    "name": "Toronto",
    "country": "Australia",
    "lat": -33,
    "lon": 151.58
  },
  {
    "id": "321",
    "name": "Townsville",
    "country": "Australia",
    "lat": -19.25,
    "lon": 146.77
  },
  {
    "id": "1312",
    "name": "Tuggeranong",
    "country": "Australia",
    "lat": -35.43,
    "lon": 149.15
  },
  {
    "id": "517",
    "name": "Tullamarine",
    "country": "Australia",
    "lat": -37.68,
    "lon": 144.84
  },
  {
    "id": "1826",
    "name": "Tunnack",
    "country": "Australia",
    "lat": -42.45,
    "lon": 147.46
  },
  {
    "id": "1740",
    "name": "Tweed Heads",
    "country": "Australia",
    "lat": -28.2,
    "lon": 153.55
  },
  {
    "id": "1741",
    "name": "Ulverstone",
    "country": "Australia",
    "lat": -41.15,
    "lon": 146.16
  },
  {
    "id": "503",
    "name": "Victor Harbor",
    "country": "Australia",
    "lat": -35.56,
    "lon": 138.62
  },
  {
    "id": "1742",
    "name": "Wadeye",
    "country": "Australia",
    "lat": -14.23,
    "lon": 129.52
  },
  {
    "id": "504",
    "name": "Wagga Wagga",
    "country": "Australia",
    "lat": -35.16,
    "lon": 147.46
  },
  {
    "id": "1743",
    "name": "Wallsend",
    "country": "Australia",
    "lat": -32.9,
    "lon": 151.67
  },
  {
    "id": "1744",
    "name": "Walpeup",
    "country": "Australia",
    "lat": -35.12,
    "lon": 142
  },
  {
    "id": "505",
    "name": "Wangaratta",
    "country": "Australia",
    "lat": -36.42,
    "lon": 146.31
  },
  {
    "id": "1827",
    "name": "Waratah",
    "country": "Australia",
    "lat": -41.44,
    "lon": 145.53
  },
  {
    "id": "1745",
    "name": "Warracknabeal",
    "country": "Australia",
    "lat": -36.26,
    "lon": 142.41
  },
  {
    "id": "506",
    "name": "Warrnambool",
    "country": "Australia",
    "lat": -38.29,
    "lon": 142.44
  },
  {
    "id": "507",
    "name": "Warwick",
    "country": "Australia",
    "lat": -28.22,
    "lon": 152.03
  },
  {
    "id": "516",
    "name": "Watsonia",
    "country": "Australia",
    "lat": -37.7,
    "lon": 145.08
  },
  {
    "id": "1746",
    "name": "Weeaproinah",
    "country": "Australia",
    "lat": -38.64,
    "lon": 143.51
  },
  {
    "id": "1747",
    "name": "Whitemark",
    "country": "Australia",
    "lat": -40.12,
    "lon": 148.02
  },
  {
    "id": "508",
    "name": "Whyalla",
    "country": "Australia",
    "lat": -33.03,
    "lon": 137.53
  },
  {
    "id": "1748",
    "name": "Wilsons Promontory",
    "country": "Australia",
    "lat": -39.13,
    "lon": 146.42
  },
  {
    "id": "509",
    "name": "Winton",
    "country": "Australia",
    "lat": -22.39,
    "lon": 143.04
  },
  {
    "id": "318",
    "name": "Wollongong",
    "country": "Australia",
    "lat": -34.4,
    "lon": 150.88
  },
  {
    "id": "510",
    "name": "Wonthaggi",
    "country": "Australia",
    "lat": -38.61,
    "lon": 145.6
  },
  {
    "id": "511",
    "name": "Woomera",
    "country": "Australia",
    "lat": -31.16,
    "lon": 136.8
  },
  {
    "id": "1217",
    "name": "Wudinna",
    "country": "Australia",
    "lat": -33.05,
    "lon": 135.46
  },
  {
    "id": "1212",
    "name": "Wyndham",
    "country": "Australia",
    "lat": -15.48,
    "lon": 128.12
  },
  {
    "id": "1749",
    "name": "Wynyard",
    "country": "Australia",
    "lat": -41,
    "lon": 145.73
  },
  {
    "id": "512",
    "name": "Yarra Glen",
    "country": "Australia",
    "lat": -37.66,
    "lon": 145.44
  },
  {
    "id": "1750",
    "name": "Yarrawonga",
    "country": "Australia",
    "lat": -36.03,
    "lon": 146.03
  },
  {
    "id": "1751",
    "name": "Yass",
    "country": "Australia",
    "lat": -34.83,
    "lon": 148.91
  },
  {
    "id": "513",
    "name": "Yeppoon",
    "country": "Australia",
    "lat": -23.1,
    "lon": 150.73
  },
  {
    "id": "1321",
    "name": "Young",
    "country": "Australia",
    "lat": -34.25,
    "lon": 148.23
  },
  {
    "id": "1752",
    "name": "Yuendumu",
    "country": "Australia",
    "lat": -22.26,
    "lon": 131.8
  },
  {
    "id": "514",
    "name": "Yulara",
    "country": "Australia",
    "lat": -25.19,
    "lon": 130.97
  },
  {
    "id": "1828",
    "name": "Zeehan",
    "country": "Australia",
    "lat": -41.88,
    "lon": 145.33
  },
  {
    "id": "905",
    "name": "Innsbruck",
    "country": "Austria",
    "lat": 47.27,
    "lon": 11.35
  },
  {
    "id": "904",
    "name": "Klagenfurt",
    "country": "Austria",
    "lat": 46.65,
    "lon": 14.33
  },
  {
    "id": "17",
    "name": "Vienna",
    "country": "Austria",
    "lat": 48.25,
    "lon": 16.37
  },
  {
    "id": "18",
    "name": "Baku",
    "country": "Azerbaijan",
    "lat": 40.38,
    "lon": 49.85
  },
  {
    "id": "19",
    "name": "Ganja",
    "country": "Azerbaijan",
    "lat": 40.72,
    "lon": 46.42
  },
  {
    "id": "20",
    "name": "Lenkaran",
    "country": "Azerbaijan",
    "lat": 38.75,
    "lon": 48.83
  },
  {
    "id": "1633",
    "name": "Freeport",
    "country": "Bahamas",
    "lat": 26.55,
    "lon": -78.7
  },
  {
    "id": "1634",
    "name": "Inagua",
    "country": "Bahamas",
    "lat": 20.95,
    "lon": -73.68
  },
  {
    "id": "97",
    "name": "Nassau",
    "country": "Bahamas",
    "lat": 25.05,
    "lon": -77.466667
  },
  {
    "id": "220",
    "name": "Bahrain/Manama",
    "country": "Bahrain",
    "lat": 26.27,
    "lon": 50.65
  },
  {
    "id": "1168",
    "name": "Barishal",
    "country": "Bangladesh",
    "lat": 22.7,
    "lon": 90.37
  },
  {
    "id": "1164",
    "name": "Chittagong",
    "country": "Bangladesh",
    "lat": 22.8,
    "lon": 91.99
  },
  {
    "id": "1163",
    "name": "Dhaka",
    "country": "Bangladesh",
    "lat": 23.71,
    "lon": 90.41
  },
  {
    "id": "1167",
    "name": "Khulna",
    "country": "Bangladesh",
    "lat": 22.81,
    "lon": 89.25
  },
  {
    "id": "1166",
    "name": "Rajshahi",
    "country": "Bangladesh",
    "lat": 24.3635886,
    "lon": 88.6241351
  },
  {
    "id": "1165",
    "name": "Sylhet",
    "country": "Bangladesh",
    "lat": 24.9,
    "lon": 91.88
  },
  {
    "id": "205",
    "name": "Minsk",
    "country": "Belarus",
    "lat": 53.928611,
    "lon": 27.635278
  },
  {
    "id": "2291",
    "name": "Aalst",
    "country": "Belgium",
    "lat": 50.944717,
    "lon": 4.068921
  },
  {
    "id": "2292",
    "name": "Aalter",
    "country": "Belgium",
    "lat": 51.078255,
    "lon": 3.445283
  },
  {
    "id": "2293",
    "name": "Aarschot",
    "country": "Belgium",
    "lat": 50.988923,
    "lon": 4.864586
  },
  {
    "id": "2294",
    "name": "Aartselaar",
    "country": "Belgium",
    "lat": 51.131852,
    "lon": 4.382501
  },
  {
    "id": "2295",
    "name": "Affligem",
    "country": "Belgium",
    "lat": 50.904037,
    "lon": 4.115474
  },
  {
    "id": "2296",
    "name": "Aiseau-Presles",
    "country": "Belgium",
    "lat": 50.404782,
    "lon": 4.576849
  },
  {
    "id": "2297",
    "name": "Alken",
    "country": "Belgium",
    "lat": 50.878365,
    "lon": 5.290641
  },
  {
    "id": "2298",
    "name": "Alveringem",
    "country": "Belgium",
    "lat": 50.975716,
    "lon": 2.677717
  },
  {
    "id": "2299",
    "name": "Amay",
    "country": "Belgium",
    "lat": 50.552967,
    "lon": 5.311641
  },
  {
    "id": "2300",
    "name": "Amel",
    "country": "Belgium",
    "lat": 50.345619,
    "lon": 6.181235
  },
  {
    "id": "2301",
    "name": "Andenne",
    "country": "Belgium",
    "lat": 50.486761,
    "lon": 5.057898
  },
  {
    "id": "2302",
    "name": "Anderlecht",
    "country": "Belgium",
    "lat": 50.82907,
    "lon": 4.292967
  },
  {
    "id": "2303",
    "name": "Anderlues",
    "country": "Belgium",
    "lat": 50.40365,
    "lon": 4.265594
  },
  {
    "id": "2304",
    "name": "Anhee",
    "country": "Belgium",
    "lat": 50.318889,
    "lon": 4.809997
  },
  {
    "id": "2305",
    "name": "Ans",
    "country": "Belgium",
    "lat": 50.682719,
    "lon": 5.506069
  },
  {
    "id": "2306",
    "name": "Anthisnes",
    "country": "Belgium",
    "lat": 50.489453,
    "lon": 5.498663
  },
  {
    "id": "2307",
    "name": "Antoing",
    "country": "Belgium",
    "lat": 50.556179,
    "lon": 3.465746
  },
  {
    "id": "2308",
    "name": "Antwerp",
    "country": "Belgium",
    "lat": 51.260463,
    "lon": 4.369588
  },
  {
    "id": "2309",
    "name": "Anzegem",
    "country": "Belgium",
    "lat": 50.830797,
    "lon": 3.454011
  },
  {
    "id": "2310",
    "name": "Ardooie",
    "country": "Belgium",
    "lat": 50.981723,
    "lon": 3.20311
  },
  {
    "id": "2311",
    "name": "Arendonk",
    "country": "Belgium",
    "lat": 51.334679,
    "lon": 5.085408
  },
  {
    "id": "2312",
    "name": "Arlon",
    "country": "Belgium",
    "lat": 49.675217,
    "lon": 5.793857
  },
  {
    "id": "2313",
    "name": "As",
    "country": "Belgium",
    "lat": 51.008661,
    "lon": 5.584697
  },
  {
    "id": "2314",
    "name": "Asse",
    "country": "Belgium",
    "lat": 50.907273,
    "lon": 4.215299
  },
  {
    "id": "2315",
    "name": "Assenede",
    "country": "Belgium",
    "lat": 51.227188,
    "lon": 3.71486
  },
  {
    "id": "2316",
    "name": "Assesse",
    "country": "Belgium",
    "lat": 50.375418,
    "lon": 4.993046
  },
  {
    "id": "2317",
    "name": "Ath",
    "country": "Belgium",
    "lat": 50.639315,
    "lon": 3.772792
  },
  {
    "id": "2318",
    "name": "Attert",
    "country": "Belgium",
    "lat": 49.745513,
    "lon": 5.757426
  },
  {
    "id": "2319",
    "name": "Aubange",
    "country": "Belgium",
    "lat": 49.574875,
    "lon": 5.777243
  },
  {
    "id": "2320",
    "name": "Aubel",
    "country": "Belgium",
    "lat": 50.700461,
    "lon": 5.851286
  },
  {
    "id": "2321",
    "name": "Avelgem",
    "country": "Belgium",
    "lat": 50.777684,
    "lon": 3.453751
  },
  {
    "id": "2322",
    "name": "Awans",
    "country": "Belgium",
    "lat": 50.692769,
    "lon": 5.455189
  },
  {
    "id": "2323",
    "name": "Aywaille",
    "country": "Belgium",
    "lat": 50.457631,
    "lon": 5.701465
  },
  {
    "id": "2324",
    "name": "Baarle-Hertog",
    "country": "Belgium",
    "lat": 51.405652,
    "lon": 4.8933
  },
  {
    "id": "2325",
    "name": "Baelen",
    "country": "Belgium",
    "lat": 50.583089,
    "lon": 6.044831
  },
  {
    "id": "2326",
    "name": "Balen",
    "country": "Belgium",
    "lat": 51.158582,
    "lon": 5.183022
  },
  {
    "id": "2327",
    "name": "Bassenge",
    "country": "Belgium",
    "lat": 50.765566,
    "lon": 5.610004
  },
  {
    "id": "2328",
    "name": "Bastogne",
    "country": "Belgium",
    "lat": 50.015715,
    "lon": 5.761658
  },
  {
    "id": "2329",
    "name": "Beaumont",
    "country": "Belgium",
    "lat": 50.229205,
    "lon": 4.259197
  },
  {
    "id": "2330",
    "name": "Beauraing",
    "country": "Belgium",
    "lat": 50.093049,
    "lon": 4.952524
  },
  {
    "id": "2331",
    "name": "Beauvechain",
    "country": "Belgium",
    "lat": 50.776089,
    "lon": 4.764525
  },
  {
    "id": "2332",
    "name": "Beernem",
    "country": "Belgium",
    "lat": 51.150718,
    "lon": 3.336675
  },
  {
    "id": "2333",
    "name": "Beerse",
    "country": "Belgium",
    "lat": 51.314356,
    "lon": 4.823269
  },
  {
    "id": "2334",
    "name": "Beersel",
    "country": "Belgium",
    "lat": 50.750529,
    "lon": 4.302013
  },
  {
    "id": "2335",
    "name": "Begijnendijk",
    "country": "Belgium",
    "lat": 51.007093,
    "lon": 4.784683
  },
  {
    "id": "2336",
    "name": "Bekkevoort",
    "country": "Belgium",
    "lat": 50.934413,
    "lon": 4.978069
  },
  {
    "id": "2337",
    "name": "Beloeil",
    "country": "Belgium",
    "lat": 50.532462,
    "lon": 3.688835
  },
  {
    "id": "2338",
    "name": "Beringen",
    "country": "Belgium",
    "lat": 51.065466,
    "lon": 5.236087
  },
  {
    "id": "2339",
    "name": "Berlaar",
    "country": "Belgium",
    "lat": 51.107208,
    "lon": 4.656183
  },
  {
    "id": "2340",
    "name": "Berlare",
    "country": "Belgium",
    "lat": 51.036264,
    "lon": 3.979232
  },
  {
    "id": "2341",
    "name": "Berloz",
    "country": "Belgium",
    "lat": 50.70377,
    "lon": 5.203184
  },
  {
    "id": "2342",
    "name": "Bernissart",
    "country": "Belgium",
    "lat": 50.479426,
    "lon": 3.686558
  },
  {
    "id": "2343",
    "name": "Bertem",
    "country": "Belgium",
    "lat": 50.853767,
    "lon": 4.609828
  },
  {
    "id": "2344",
    "name": "Bertogne",
    "country": "Belgium",
    "lat": 50.063233,
    "lon": 5.646412
  },
  {
    "id": "2345",
    "name": "Bertrix",
    "country": "Belgium",
    "lat": 49.85401,
    "lon": 5.246482
  },
  {
    "id": "2346",
    "name": "Bever",
    "country": "Belgium",
    "lat": 50.710715,
    "lon": 3.932181
  },
  {
    "id": "2347",
    "name": "Beveren",
    "country": "Belgium",
    "lat": 51.254527,
    "lon": 4.236683
  },
  {
    "id": "2348",
    "name": "Beyne-Heusay",
    "country": "Belgium",
    "lat": 50.628525,
    "lon": 5.661649
  },
  {
    "id": "2349",
    "name": "Bierbeek",
    "country": "Belgium",
    "lat": 50.83009,
    "lon": 4.767388
  },
  {
    "id": "2350",
    "name": "Bievre",
    "country": "Belgium",
    "lat": 49.921964,
    "lon": 5.019706
  },
  {
    "id": "2351",
    "name": "Bilzen",
    "country": "Belgium",
    "lat": 50.872172,
    "lon": 5.533544
  },
  {
    "id": "2352",
    "name": "Binche",
    "country": "Belgium",
    "lat": 50.408736,
    "lon": 4.177155
  },
  {
    "id": "2353",
    "name": "Blankenberge",
    "country": "Belgium",
    "lat": 51.300351,
    "lon": 3.140392
  },
  {
    "id": "2354",
    "name": "Blegny",
    "country": "Belgium",
    "lat": 50.674556,
    "lon": 5.708982
  },
  {
    "id": "2355",
    "name": "Bocholt",
    "country": "Belgium",
    "lat": 51.187061,
    "lon": 5.563827
  },
  {
    "id": "2356",
    "name": "Boechout",
    "country": "Belgium",
    "lat": 51.165746,
    "lon": 4.516647
  },
  {
    "id": "2357",
    "name": "Bonheiden",
    "country": "Belgium",
    "lat": 51.020741,
    "lon": 4.570833
  },
  {
    "id": "2358",
    "name": "Boom",
    "country": "Belgium",
    "lat": 51.093541,
    "lon": 4.37296
  },
  {
    "id": "2359",
    "name": "Boortmeerbeek",
    "country": "Belgium",
    "lat": 50.980034,
    "lon": 4.560966
  },
  {
    "id": "2360",
    "name": "Borgloon",
    "country": "Belgium",
    "lat": 50.804817,
    "lon": 5.34082
  },
  {
    "id": "2361",
    "name": "Bornem",
    "country": "Belgium",
    "lat": 51.095385,
    "lon": 4.242914
  },
  {
    "id": "2362",
    "name": "Borsbeek",
    "country": "Belgium",
    "lat": 51.191497,
    "lon": 4.487767
  },
  {
    "id": "2363",
    "name": "Bouillon",
    "country": "Belgium",
    "lat": 49.805972,
    "lon": 5.08326
  },
  {
    "id": "2364",
    "name": "Boussu",
    "country": "Belgium",
    "lat": 50.427132,
    "lon": 3.799679
  },
  {
    "id": "2365",
    "name": "Boutersem",
    "country": "Belgium",
    "lat": 50.835209,
    "lon": 4.842734
  },
  {
    "id": "2366",
    "name": "Braine-L'Alleud",
    "country": "Belgium",
    "lat": 50.673215,
    "lon": 4.354748
  },
  {
    "id": "2367",
    "name": "Braine-Le-Chateau",
    "country": "Belgium",
    "lat": 50.679666,
    "lon": 4.284133
  },
  {
    "id": "2368",
    "name": "Braine-Le-Comte",
    "country": "Belgium",
    "lat": 50.616171,
    "lon": 4.1424
  },
  {
    "id": "2369",
    "name": "Braives",
    "country": "Belgium",
    "lat": 50.615443,
    "lon": 5.149461
  },
  {
    "id": "2370",
    "name": "Brakel",
    "country": "Belgium",
    "lat": 50.797961,
    "lon": 3.757937
  },
  {
    "id": "2371",
    "name": "Brasschaat",
    "country": "Belgium",
    "lat": 51.309606,
    "lon": 4.500523
  },
  {
    "id": "2372",
    "name": "Brecht",
    "country": "Belgium",
    "lat": 51.335981,
    "lon": 4.628286
  },
  {
    "id": "2373",
    "name": "Bredene",
    "country": "Belgium",
    "lat": 51.236642,
    "lon": 2.97758
  },
  {
    "id": "2374",
    "name": "Bree",
    "country": "Belgium",
    "lat": 51.141933,
    "lon": 5.632442
  },
  {
    "id": "2375",
    "name": "Brugelette",
    "country": "Belgium",
    "lat": 50.602093,
    "lon": 3.867237
  },
  {
    "id": "2376",
    "name": "Brugge",
    "country": "Belgium",
    "lat": 51.247815,
    "lon": 3.215089
  },
  {
    "id": "2377",
    "name": "Brunehaut",
    "country": "Belgium",
    "lat": 50.527128,
    "lon": 3.395134
  },
  {
    "id": "191",
    "name": "Brussels",
    "country": "Belgium",
    "lat": 50.8,
    "lon": 4.35
  },
  {
    "id": "2378",
    "name": "Buggenhout",
    "country": "Belgium",
    "lat": 51.011802,
    "lon": 4.199004
  },
  {
    "id": "2379",
    "name": "Bullingen",
    "country": "Belgium",
    "lat": 50.395996,
    "lon": 6.313856
  },
  {
    "id": "2380",
    "name": "Burdinne",
    "country": "Belgium",
    "lat": 50.582647,
    "lon": 5.09971
  },
  {
    "id": "2381",
    "name": "Burg-Reuland",
    "country": "Belgium",
    "lat": 50.203518,
    "lon": 6.093006
  },
  {
    "id": "2382",
    "name": "Butgenbach",
    "country": "Belgium",
    "lat": 50.464511,
    "lon": 6.209255
  },
  {
    "id": "2383",
    "name": "Celles",
    "country": "Belgium",
    "lat": 50.703723,
    "lon": 3.44909
  },
  {
    "id": "2384",
    "name": "Cerfontaine",
    "country": "Belgium",
    "lat": 50.179544,
    "lon": 4.436844
  },
  {
    "id": "2385",
    "name": "Chapelle-Lez-Herlaimont",
    "country": "Belgium",
    "lat": 50.462409,
    "lon": 4.287485
  },
  {
    "id": "2386",
    "name": "Charleroi",
    "country": "Belgium",
    "lat": 50.421044,
    "lon": 4.43463
  },
  {
    "id": "2387",
    "name": "Chastre",
    "country": "Belgium",
    "lat": 50.589413,
    "lon": 4.623405
  },
  {
    "id": "2388",
    "name": "Chatelet",
    "country": "Belgium",
    "lat": 50.397135,
    "lon": 4.522271
  },
  {
    "id": "2389",
    "name": "Chaudfontaine",
    "country": "Belgium",
    "lat": 50.581482,
    "lon": 5.633693
  },
  {
    "id": "2390",
    "name": "Chaumont-Gistoux",
    "country": "Belgium",
    "lat": 50.687105,
    "lon": 4.690592
  },
  {
    "id": "2391",
    "name": "Chievres",
    "country": "Belgium",
    "lat": 50.571168,
    "lon": 3.783994
  },
  {
    "id": "2392",
    "name": "Chimay",
    "country": "Belgium",
    "lat": 50.040875,
    "lon": 4.324198
  },
  {
    "id": "2393",
    "name": "Chiny",
    "country": "Belgium",
    "lat": 49.72032,
    "lon": 5.39159
  },
  {
    "id": "2394",
    "name": "Ciney",
    "country": "Belgium",
    "lat": 50.269497,
    "lon": 5.122515
  },
  {
    "id": "2395",
    "name": "Clavier",
    "country": "Belgium",
    "lat": 50.412943,
    "lon": 5.335956
  },
  {
    "id": "2396",
    "name": "Colfontaine",
    "country": "Belgium",
    "lat": 50.405765,
    "lon": 3.844286
  },
  {
    "id": "2397",
    "name": "Comblain-Au-Pont",
    "country": "Belgium",
    "lat": 50.481671,
    "lon": 5.579952
  },
  {
    "id": "2398",
    "name": "Comines-Warneton",
    "country": "Belgium",
    "lat": 50.751618,
    "lon": 2.930338
  },
  {
    "id": "2399",
    "name": "Courcelles",
    "country": "Belgium",
    "lat": 50.472501,
    "lon": 4.341038
  },
  {
    "id": "2400",
    "name": "Court-Saint-Etienne",
    "country": "Belgium",
    "lat": 50.626549,
    "lon": 4.562737
  },
  {
    "id": "2401",
    "name": "Couvin",
    "country": "Belgium",
    "lat": 50.037874,
    "lon": 4.480891
  },
  {
    "id": "2402",
    "name": "Crisnee",
    "country": "Belgium",
    "lat": 50.710577,
    "lon": 5.396693
  },
  {
    "id": "2403",
    "name": "Dalhem",
    "country": "Belgium",
    "lat": 50.720745,
    "lon": 5.759063
  },
  {
    "id": "2404",
    "name": "Damme",
    "country": "Belgium",
    "lat": 51.252205,
    "lon": 3.327501
  },
  {
    "id": "2405",
    "name": "Daverdisse",
    "country": "Belgium",
    "lat": 50.004236,
    "lon": 5.066464
  },
  {
    "id": "2406",
    "name": "De Haan",
    "country": "Belgium",
    "lat": 51.259232,
    "lon": 3.047745
  },
  {
    "id": "2407",
    "name": "De Panne",
    "country": "Belgium",
    "lat": 51.078804,
    "lon": 2.58986
  },
  {
    "id": "2408",
    "name": "De Pinte",
    "country": "Belgium",
    "lat": 50.985851,
    "lon": 3.668989
  },
  {
    "id": "2409",
    "name": "Deerlijk",
    "country": "Belgium",
    "lat": 50.842559,
    "lon": 3.366204
  },
  {
    "id": "2410",
    "name": "Deinze",
    "country": "Belgium",
    "lat": 50.990354,
    "lon": 3.51631
  },
  {
    "id": "2411",
    "name": "Denderleeuw",
    "country": "Belgium",
    "lat": 50.886367,
    "lon": 4.058078
  },
  {
    "id": "2412",
    "name": "Dendermonde",
    "country": "Belgium",
    "lat": 51.027509,
    "lon": 4.090539
  },
  {
    "id": "2413",
    "name": "Dentergem",
    "country": "Belgium",
    "lat": 50.953279,
    "lon": 3.406559
  },
  {
    "id": "2414",
    "name": "Dessel",
    "country": "Belgium",
    "lat": 51.241535,
    "lon": 5.12208
  },
  {
    "id": "2415",
    "name": "Destelbergen",
    "country": "Belgium",
    "lat": 51.044247,
    "lon": 3.809327
  },
  {
    "id": "2416",
    "name": "Diepenbeek",
    "country": "Belgium",
    "lat": 50.911434,
    "lon": 5.417386
  },
  {
    "id": "2417",
    "name": "Diest",
    "country": "Belgium",
    "lat": 51.001503,
    "lon": 5.069185
  },
  {
    "id": "2418",
    "name": "Diksmuide",
    "country": "Belgium",
    "lat": 51.047372,
    "lon": 2.854249
  },
  {
    "id": "2419",
    "name": "Dilbeek",
    "country": "Belgium",
    "lat": 50.853247,
    "lon": 4.233819
  },
  {
    "id": "2420",
    "name": "Dilsen-Stokkem",
    "country": "Belgium",
    "lat": 51.036083,
    "lon": 5.712227
  },
  {
    "id": "2421",
    "name": "Dinant",
    "country": "Belgium",
    "lat": 50.249418,
    "lon": 4.943007
  },
  {
    "id": "2422",
    "name": "Dison",
    "country": "Belgium",
    "lat": 50.614058,
    "lon": 5.874543
  },
  {
    "id": "2423",
    "name": "Doische",
    "country": "Belgium",
    "lat": 50.144246,
    "lon": 4.698946
  },
  {
    "id": "2424",
    "name": "Donceel",
    "country": "Belgium",
    "lat": 50.649366,
    "lon": 5.325866
  },
  {
    "id": "2425",
    "name": "Dour",
    "country": "Belgium",
    "lat": 50.387353,
    "lon": 3.787112
  },
  {
    "id": "2426",
    "name": "Drogenbos",
    "country": "Belgium",
    "lat": 50.793647,
    "lon": 4.309003
  },
  {
    "id": "2427",
    "name": "Duffel",
    "country": "Belgium",
    "lat": 51.09574,
    "lon": 4.514075
  },
  {
    "id": "2428",
    "name": "Durbuy",
    "country": "Belgium",
    "lat": 50.360731,
    "lon": 5.488336
  },
  {
    "id": "2429",
    "name": "Ecaussinnes",
    "country": "Belgium",
    "lat": 50.562676,
    "lon": 4.179443
  },
  {
    "id": "2430",
    "name": "Edegem",
    "country": "Belgium",
    "lat": 51.156312,
    "lon": 4.432919
  },
  {
    "id": "2431",
    "name": "Eeklo",
    "country": "Belgium",
    "lat": 51.194356,
    "lon": 3.562367
  },
  {
    "id": "2432",
    "name": "Eghezee",
    "country": "Belgium",
    "lat": 50.586656,
    "lon": 4.893969
  },
  {
    "id": "2433",
    "name": "Ellezelles",
    "country": "Belgium",
    "lat": 50.720579,
    "lon": 3.699134
  },
  {
    "id": "2434",
    "name": "Enghien",
    "country": "Belgium",
    "lat": 50.677655,
    "lon": 4.030079
  },
  {
    "id": "2435",
    "name": "Engis",
    "country": "Belgium",
    "lat": 50.557501,
    "lon": 5.388582
  },
  {
    "id": "2436",
    "name": "Erezee",
    "country": "Belgium",
    "lat": 50.296587,
    "lon": 5.557906
  },
  {
    "id": "2437",
    "name": "Erpe-Mere",
    "country": "Belgium",
    "lat": 50.921537,
    "lon": 3.952138
  },
  {
    "id": "2438",
    "name": "Erquelinnes",
    "country": "Belgium",
    "lat": 50.303904,
    "lon": 4.138577
  },
  {
    "id": "2439",
    "name": "Esneux",
    "country": "Belgium",
    "lat": 50.537715,
    "lon": 5.569204
  },
  {
    "id": "2440",
    "name": "Essen",
    "country": "Belgium",
    "lat": 51.449472,
    "lon": 4.465928
  },
  {
    "id": "2441",
    "name": "Estaimpuis",
    "country": "Belgium",
    "lat": 50.687643,
    "lon": 3.288512
  },
  {
    "id": "2442",
    "name": "Estinnes",
    "country": "Belgium",
    "lat": 50.378791,
    "lon": 4.100572
  },
  {
    "id": "2443",
    "name": "Etalle",
    "country": "Belgium",
    "lat": 49.66396,
    "lon": 5.608985
  },
  {
    "id": "2444",
    "name": "Etterbeek",
    "country": "Belgium",
    "lat": 50.832972,
    "lon": 4.394653
  },
  {
    "id": "2445",
    "name": "Eupen",
    "country": "Belgium",
    "lat": 50.610097,
    "lon": 6.125445
  },
  {
    "id": "2446",
    "name": "Evere",
    "country": "Belgium",
    "lat": 50.869845,
    "lon": 4.40836
  },
  {
    "id": "2447",
    "name": "Evergem",
    "country": "Belgium",
    "lat": 51.143324,
    "lon": 3.708129
  },
  {
    "id": "2448",
    "name": "Faimes",
    "country": "Belgium",
    "lat": 50.644903,
    "lon": 5.242839
  },
  {
    "id": "2449",
    "name": "Farciennes",
    "country": "Belgium",
    "lat": 50.434438,
    "lon": 4.546665
  },
  {
    "id": "2450",
    "name": "Fauvillers",
    "country": "Belgium",
    "lat": 49.876935,
    "lon": 5.696703
  },
  {
    "id": "2451",
    "name": "Fernelmont",
    "country": "Belgium",
    "lat": 50.554025,
    "lon": 4.987317
  },
  {
    "id": "2452",
    "name": "Ferrieres",
    "country": "Belgium",
    "lat": 50.407202,
    "lon": 5.620914
  },
  {
    "id": "2453",
    "name": "Fexhe-Le-Haut-Clocher",
    "country": "Belgium",
    "lat": 50.663819,
    "lon": 5.402136
  },
  {
    "id": "2454",
    "name": "Flemalle",
    "country": "Belgium",
    "lat": 50.596966,
    "lon": 5.441131
  },
  {
    "id": "2455",
    "name": "Fleron",
    "country": "Belgium",
    "lat": 50.615141,
    "lon": 5.684233
  },
  {
    "id": "2456",
    "name": "Fleurus",
    "country": "Belgium",
    "lat": 50.486448,
    "lon": 4.539266
  },
  {
    "id": "2457",
    "name": "Flobecq",
    "country": "Belgium",
    "lat": 50.753496,
    "lon": 3.731543
  },
  {
    "id": "2458",
    "name": "Floreffe",
    "country": "Belgium",
    "lat": 50.434965,
    "lon": 4.755665
  },
  {
    "id": "2459",
    "name": "Florennes",
    "country": "Belgium",
    "lat": 50.253785,
    "lon": 4.631156
  },
  {
    "id": "2460",
    "name": "Florenville",
    "country": "Belgium",
    "lat": 49.707658,
    "lon": 5.275509
  },
  {
    "id": "2461",
    "name": "Fontaine-L'Eveque",
    "country": "Belgium",
    "lat": 50.407364,
    "lon": 4.321784
  },
  {
    "id": "2462",
    "name": "Forest",
    "country": "Belgium",
    "lat": 50.814121,
    "lon": 4.324204
  },
  {
    "id": "2463",
    "name": "Fosses-La-Ville",
    "country": "Belgium",
    "lat": 50.39323,
    "lon": 4.680836
  },
  {
    "id": "2464",
    "name": "Frameries",
    "country": "Belgium",
    "lat": 50.389989,
    "lon": 3.886402
  },
  {
    "id": "2465",
    "name": "Frasnes-Lez-Anvaing",
    "country": "Belgium",
    "lat": 50.682431,
    "lon": 3.600612
  },
  {
    "id": "2466",
    "name": "Froidchapelle",
    "country": "Belgium",
    "lat": 50.164981,
    "lon": 4.347542
  },
  {
    "id": "2467",
    "name": "Galmaarden",
    "country": "Belgium",
    "lat": 50.752792,
    "lon": 3.987929
  },
  {
    "id": "2468",
    "name": "Ganshoren",
    "country": "Belgium",
    "lat": 50.874361,
    "lon": 4.30955
  },
  {
    "id": "2469",
    "name": "Gavere",
    "country": "Belgium",
    "lat": 50.928915,
    "lon": 3.68556
  },
  {
    "id": "2470",
    "name": "Gedinne",
    "country": "Belgium",
    "lat": 49.984364,
    "lon": 4.902791
  },
  {
    "id": "2471",
    "name": "Geel",
    "country": "Belgium",
    "lat": 51.166461,
    "lon": 4.984746
  },
  {
    "id": "2472",
    "name": "Geer",
    "country": "Belgium",
    "lat": 50.669652,
    "lon": 5.181428
  },
  {
    "id": "2473",
    "name": "Geetbets",
    "country": "Belgium",
    "lat": 50.891485,
    "lon": 5.131027
  },
  {
    "id": "2474",
    "name": "Gembloux",
    "country": "Belgium",
    "lat": 50.554276,
    "lon": 4.70915
  },
  {
    "id": "2475",
    "name": "Genappe",
    "country": "Belgium",
    "lat": 50.610175,
    "lon": 4.456097
  },
  {
    "id": "2476",
    "name": "Genk",
    "country": "Belgium",
    "lat": 50.967198,
    "lon": 5.494996
  },
  {
    "id": "2477",
    "name": "Geraardsbergen",
    "country": "Belgium",
    "lat": 50.77966,
    "lon": 3.90413
  },
  {
    "id": "2478",
    "name": "Gerpinnes",
    "country": "Belgium",
    "lat": 50.347458,
    "lon": 4.527859
  },
  {
    "id": "2479",
    "name": "Gesves",
    "country": "Belgium",
    "lat": 50.422515,
    "lon": 5.053281
  },
  {
    "id": "2480",
    "name": "Ghent",
    "country": "Belgium",
    "lat": 51.074344,
    "lon": 3.725391
  },
  {
    "id": "2481",
    "name": "Gingelom",
    "country": "Belgium",
    "lat": 50.737413,
    "lon": 5.169451
  },
  {
    "id": "2482",
    "name": "Gistel",
    "country": "Belgium",
    "lat": 51.151068,
    "lon": 2.943196
  },
  {
    "id": "2483",
    "name": "Glabbeek",
    "country": "Belgium",
    "lat": 50.867018,
    "lon": 4.949361
  },
  {
    "id": "2484",
    "name": "Gooik",
    "country": "Belgium",
    "lat": 50.780913,
    "lon": 4.095795
  },
  {
    "id": "2485",
    "name": "Gouvy",
    "country": "Belgium",
    "lat": 50.192586,
    "lon": 5.911428
  },
  {
    "id": "2486",
    "name": "Grace-Hollogne",
    "country": "Belgium",
    "lat": 50.637789,
    "lon": 5.439339
  },
  {
    "id": "2487",
    "name": "Grez-Doiceau",
    "country": "Belgium",
    "lat": 50.748487,
    "lon": 4.687995
  },
  {
    "id": "2488",
    "name": "Grimbergen",
    "country": "Belgium",
    "lat": 50.944683,
    "lon": 4.376513
  },
  {
    "id": "2489",
    "name": "Grobbendonk",
    "country": "Belgium",
    "lat": 51.179787,
    "lon": 4.73919
  },
  {
    "id": "2490",
    "name": "Haacht",
    "country": "Belgium",
    "lat": 50.964134,
    "lon": 4.641184
  },
  {
    "id": "2491",
    "name": "Haaltert",
    "country": "Belgium",
    "lat": 50.884766,
    "lon": 3.993192
  },
  {
    "id": "2492",
    "name": "Habay",
    "country": "Belgium",
    "lat": 49.735002,
    "lon": 5.61718
  },
  {
    "id": "2493",
    "name": "Halen",
    "country": "Belgium",
    "lat": 50.950112,
    "lon": 5.094257
  },
  {
    "id": "2494",
    "name": "Halle",
    "country": "Belgium",
    "lat": 50.72636,
    "lon": 4.237161
  },
  {
    "id": "2495",
    "name": "Ham",
    "country": "Belgium",
    "lat": 51.10027,
    "lon": 5.160994
  },
  {
    "id": "2496",
    "name": "Ham-Sur-Heure-Nalinnes",
    "country": "Belgium",
    "lat": 50.327386,
    "lon": 4.413883
  },
  {
    "id": "2497",
    "name": "Hamme",
    "country": "Belgium",
    "lat": 51.078051,
    "lon": 4.139886
  },
  {
    "id": "2498",
    "name": "Hamoir",
    "country": "Belgium",
    "lat": 50.437339,
    "lon": 5.554868
  },
  {
    "id": "2499",
    "name": "Hamois",
    "country": "Belgium",
    "lat": 50.336979,
    "lon": 5.139718
  },
  {
    "id": "2500",
    "name": "Hamont-Achel",
    "country": "Belgium",
    "lat": 51.260185,
    "lon": 5.507317
  },
  {
    "id": "2501",
    "name": "Hannut",
    "country": "Belgium",
    "lat": 50.666088,
    "lon": 5.073155
  },
  {
    "id": "2502",
    "name": "Harelbeke",
    "country": "Belgium",
    "lat": 50.863876,
    "lon": 3.30731
  },
  {
    "id": "2503",
    "name": "Hasselt",
    "country": "Belgium",
    "lat": 50.935398,
    "lon": 5.308186
  },
  {
    "id": "2504",
    "name": "Hastiere",
    "country": "Belgium",
    "lat": 50.195113,
    "lon": 4.825804
  },
  {
    "id": "2505",
    "name": "Havelange",
    "country": "Belgium",
    "lat": 50.361145,
    "lon": 5.248168
  },
  {
    "id": "2506",
    "name": "Hechtel-Eksel",
    "country": "Belgium",
    "lat": 51.138445,
    "lon": 5.346371
  },
  {
    "id": "2507",
    "name": "Heers",
    "country": "Belgium",
    "lat": 50.753721,
    "lon": 5.31192
  },
  {
    "id": "2508",
    "name": "Heist-Op-Den-Berg",
    "country": "Belgium",
    "lat": 51.071607,
    "lon": 4.736092
  },
  {
    "id": "2509",
    "name": "Helecine",
    "country": "Belgium",
    "lat": 50.748374,
    "lon": 4.982736
  },
  {
    "id": "2510",
    "name": "Hemiksem",
    "country": "Belgium",
    "lat": 51.143667,
    "lon": 4.340141
  },
  {
    "id": "2511",
    "name": "Hensies",
    "country": "Belgium",
    "lat": 50.435812,
    "lon": 3.713724
  },
  {
    "id": "2512",
    "name": "Herbeumont",
    "country": "Belgium",
    "lat": 49.79538,
    "lon": 5.309535
  },
  {
    "id": "2513",
    "name": "Herent",
    "country": "Belgium",
    "lat": 50.910669,
    "lon": 4.646651
  },
  {
    "id": "2514",
    "name": "Herentals",
    "country": "Belgium",
    "lat": 51.163979,
    "lon": 4.827731
  },
  {
    "id": "2515",
    "name": "Herenthout",
    "country": "Belgium",
    "lat": 51.139168,
    "lon": 4.759938
  },
  {
    "id": "2516",
    "name": "Herk-De-Stad",
    "country": "Belgium",
    "lat": 50.937441,
    "lon": 5.177651
  },
  {
    "id": "2517",
    "name": "Herne",
    "country": "Belgium",
    "lat": 50.722854,
    "lon": 4.036674
  },
  {
    "id": "2518",
    "name": "Heron",
    "country": "Belgium",
    "lat": 50.54046,
    "lon": 5.105355
  },
  {
    "id": "2519",
    "name": "Herselt",
    "country": "Belgium",
    "lat": 51.047365,
    "lon": 4.883002
  },
  {
    "id": "2520",
    "name": "Herstal",
    "country": "Belgium",
    "lat": 50.681414,
    "lon": 5.606526
  },
  {
    "id": "2521",
    "name": "Herstappe",
    "country": "Belgium",
    "lat": 50.725912,
    "lon": 5.425355
  },
  {
    "id": "2522",
    "name": "Herve",
    "country": "Belgium",
    "lat": 50.648795,
    "lon": 5.796271
  },
  {
    "id": "2523",
    "name": "Herzele",
    "country": "Belgium",
    "lat": 50.87049,
    "lon": 3.892562
  },
  {
    "id": "2524",
    "name": "Heusden-Zolder",
    "country": "Belgium",
    "lat": 51.019818,
    "lon": 5.289479
  },
  {
    "id": "2525",
    "name": "Heuvelland",
    "country": "Belgium",
    "lat": 50.77551,
    "lon": 2.830145
  },
  {
    "id": "2526",
    "name": "Hoegaarden",
    "country": "Belgium",
    "lat": 50.779122,
    "lon": 4.876312
  },
  {
    "id": "2527",
    "name": "Hoeilaart",
    "country": "Belgium",
    "lat": 50.760966,
    "lon": 4.450679
  },
  {
    "id": "2528",
    "name": "Hoeselt",
    "country": "Belgium",
    "lat": 50.845146,
    "lon": 5.472563
  },
  {
    "id": "2529",
    "name": "Holsbeek",
    "country": "Belgium",
    "lat": 50.929631,
    "lon": 4.801812
  },
  {
    "id": "2530",
    "name": "Honnelles",
    "country": "Belgium",
    "lat": 50.351502,
    "lon": 3.725093
  },
  {
    "id": "2531",
    "name": "Hooglede",
    "country": "Belgium",
    "lat": 50.989474,
    "lon": 3.082342
  },
  {
    "id": "2532",
    "name": "Hoogstraten",
    "country": "Belgium",
    "lat": 51.440497,
    "lon": 4.763534
  },
  {
    "id": "2533",
    "name": "Horebeke",
    "country": "Belgium",
    "lat": 50.832186,
    "lon": 3.69449
  },
  {
    "id": "2534",
    "name": "Hotton",
    "country": "Belgium",
    "lat": 50.267497,
    "lon": 5.432753
  },
  {
    "id": "2535",
    "name": "Houffalize",
    "country": "Belgium",
    "lat": 50.144367,
    "lon": 5.771016
  },
  {
    "id": "2536",
    "name": "Houthalen-Helchteren",
    "country": "Belgium",
    "lat": 51.045453,
    "lon": 5.408555
  },
  {
    "id": "2537",
    "name": "Houthulst",
    "country": "Belgium",
    "lat": 50.969985,
    "lon": 2.896472
  },
  {
    "id": "2538",
    "name": "Houyet",
    "country": "Belgium",
    "lat": 50.186026,
    "lon": 5.002889
  },
  {
    "id": "2539",
    "name": "Hove",
    "country": "Belgium",
    "lat": 51.147221,
    "lon": 4.482212
  },
  {
    "id": "2540",
    "name": "Huldenberg",
    "country": "Belgium",
    "lat": 50.789745,
    "lon": 4.611908
  },
  {
    "id": "2541",
    "name": "Hulshout",
    "country": "Belgium",
    "lat": 51.062805,
    "lon": 4.81237
  },
  {
    "id": "2542",
    "name": "Huy",
    "country": "Belgium",
    "lat": 50.508802,
    "lon": 5.22248
  },
  {
    "id": "2543",
    "name": "Ichtegem",
    "country": "Belgium",
    "lat": 51.112598,
    "lon": 3.030785
  },
  {
    "id": "2544",
    "name": "Ieper",
    "country": "Belgium",
    "lat": 50.854319,
    "lon": 2.866505
  },
  {
    "id": "2545",
    "name": "Incourt",
    "country": "Belgium",
    "lat": 50.699185,
    "lon": 4.781554
  },
  {
    "id": "2546",
    "name": "Ingelmunster",
    "country": "Belgium",
    "lat": 50.921443,
    "lon": 3.260711
  },
  {
    "id": "2547",
    "name": "Ittre",
    "country": "Belgium",
    "lat": 50.642423,
    "lon": 4.257487
  },
  {
    "id": "2548",
    "name": "Ixelles",
    "country": "Belgium",
    "lat": 50.820175,
    "lon": 4.359825
  },
  {
    "id": "2549",
    "name": "Izegem",
    "country": "Belgium",
    "lat": 50.921174,
    "lon": 3.205608
  },
  {
    "id": "2550",
    "name": "Jabbeke",
    "country": "Belgium",
    "lat": 51.188529,
    "lon": 3.096449
  },
  {
    "id": "2551",
    "name": "Jalhay",
    "country": "Belgium",
    "lat": 50.530855,
    "lon": 5.966398
  },
  {
    "id": "2552",
    "name": "Jemeppe-Sur-Sambre",
    "country": "Belgium",
    "lat": 50.471771,
    "lon": 4.676225
  },
  {
    "id": "2553",
    "name": "Jette",
    "country": "Belgium",
    "lat": 50.881691,
    "lon": 4.321423
  },
  {
    "id": "2554",
    "name": "Jodoigne",
    "country": "Belgium",
    "lat": 50.728412,
    "lon": 4.860278
  },
  {
    "id": "2555",
    "name": "Juprelle",
    "country": "Belgium",
    "lat": 50.715393,
    "lon": 5.546064
  },
  {
    "id": "2556",
    "name": "Jurbise",
    "country": "Belgium",
    "lat": 50.525227,
    "lon": 3.901165
  },
  {
    "id": "2557",
    "name": "Kalmthout",
    "country": "Belgium",
    "lat": 51.398835,
    "lon": 4.468705
  },
  {
    "id": "2558",
    "name": "Kampenhout",
    "country": "Belgium",
    "lat": 50.941185,
    "lon": 4.560701
  },
  {
    "id": "2559",
    "name": "Kapelle-Op-Den-Bos",
    "country": "Belgium",
    "lat": 51.003516,
    "lon": 4.35444
  },
  {
    "id": "2560",
    "name": "Kapellen",
    "country": "Belgium",
    "lat": 51.333906,
    "lon": 4.443716
  },
  {
    "id": "2561",
    "name": "Kaprijke",
    "country": "Belgium",
    "lat": 51.208056,
    "lon": 3.627344
  },
  {
    "id": "2562",
    "name": "Kasterlee",
    "country": "Belgium",
    "lat": 51.243281,
    "lon": 4.942112
  },
  {
    "id": "2563",
    "name": "Keerbergen",
    "country": "Belgium",
    "lat": 51.00528,
    "lon": 4.654405
  },
  {
    "id": "2564",
    "name": "Kelmis",
    "country": "Belgium",
    "lat": 50.717409,
    "lon": 6.023492
  },
  {
    "id": "2565",
    "name": "Kinrooi",
    "country": "Belgium",
    "lat": 51.152892,
    "lon": 5.760253
  },
  {
    "id": "945",
    "name": "Kleine Brogel",
    "country": "Belgium",
    "lat": 51.15,
    "lon": 5.42
  },
  {
    "id": "2566",
    "name": "Kluisbergen",
    "country": "Belgium",
    "lat": 50.779579,
    "lon": 3.53007
  },
  {
    "id": "2567",
    "name": "Knesselare",
    "country": "Belgium",
    "lat": 51.132668,
    "lon": 3.451523
  },
  {
    "id": "2568",
    "name": "Knokke-Heist",
    "country": "Belgium",
    "lat": 51.330722,
    "lon": 3.310598
  },
  {
    "id": "2569",
    "name": "Koekelare",
    "country": "Belgium",
    "lat": 51.089028,
    "lon": 2.9638
  },
  {
    "id": "2570",
    "name": "Koekelberg",
    "country": "Belgium",
    "lat": 50.863172,
    "lon": 4.323818
  },
  {
    "id": "2571",
    "name": "Koksijde",
    "country": "Belgium",
    "lat": 51.109596,
    "lon": 2.682046
  },
  {
    "id": "2572",
    "name": "Kontich",
    "country": "Belgium",
    "lat": 51.123824,
    "lon": 4.444726
  },
  {
    "id": "2573",
    "name": "Kortemark",
    "country": "Belgium",
    "lat": 51.02479,
    "lon": 3.001813
  },
  {
    "id": "2574",
    "name": "Kortenaken",
    "country": "Belgium",
    "lat": 50.893133,
    "lon": 5.023024
  },
  {
    "id": "2575",
    "name": "Kortenberg",
    "country": "Belgium",
    "lat": 50.889793,
    "lon": 4.56885
  },
  {
    "id": "2576",
    "name": "Kortessem",
    "country": "Belgium",
    "lat": 50.853004,
    "lon": 5.40592
  },
  {
    "id": "2577",
    "name": "Kortrijk",
    "country": "Belgium",
    "lat": 50.800043,
    "lon": 3.264398
  },
  {
    "id": "2578",
    "name": "Kraainem",
    "country": "Belgium",
    "lat": 50.845515,
    "lon": 4.471338
  },
  {
    "id": "2579",
    "name": "Kruibeke",
    "country": "Belgium",
    "lat": 51.157819,
    "lon": 4.291665
  },
  {
    "id": "2580",
    "name": "Kruishoutem",
    "country": "Belgium",
    "lat": 50.907938,
    "lon": 3.529504
  },
  {
    "id": "2581",
    "name": "Kuurne",
    "country": "Belgium",
    "lat": 50.860081,
    "lon": 3.27148
  },
  {
    "id": "2582",
    "name": "La Bruyere",
    "country": "Belgium",
    "lat": 50.529692,
    "lon": 4.809671
  },
  {
    "id": "2583",
    "name": "La Hulpe",
    "country": "Belgium",
    "lat": 50.736304,
    "lon": 4.464837
  },
  {
    "id": "2584",
    "name": "La Louviere",
    "country": "Belgium",
    "lat": 50.473478,
    "lon": 4.156613
  },
  {
    "id": "2585",
    "name": "La Roche-En-Ardenne",
    "country": "Belgium",
    "lat": 50.166481,
    "lon": 5.605785
  },
  {
    "id": "2586",
    "name": "Laakdal",
    "country": "Belgium",
    "lat": 51.081002,
    "lon": 5.006068
  },
  {
    "id": "2587",
    "name": "Laarne",
    "country": "Belgium",
    "lat": 51.042403,
    "lon": 3.884184
  },
  {
    "id": "2588",
    "name": "Lanaken",
    "country": "Belgium",
    "lat": 50.899402,
    "lon": 5.644254
  },
  {
    "id": "2589",
    "name": "Landen",
    "country": "Belgium",
    "lat": 50.754806,
    "lon": 5.061543
  },
  {
    "id": "2590",
    "name": "Langemark-Poelkapelle",
    "country": "Belgium",
    "lat": 50.915918,
    "lon": 2.929287
  },
  {
    "id": "2591",
    "name": "Lasne",
    "country": "Belgium",
    "lat": 50.682393,
    "lon": 4.461804
  },
  {
    "id": "2592",
    "name": "Le Roeulx",
    "country": "Belgium",
    "lat": 50.50731,
    "lon": 4.106299
  },
  {
    "id": "2593",
    "name": "Lebbeke",
    "country": "Belgium",
    "lat": 50.992456,
    "lon": 4.11898
  },
  {
    "id": "2594",
    "name": "Lede",
    "country": "Belgium",
    "lat": 50.966117,
    "lon": 3.945526
  },
  {
    "id": "2595",
    "name": "Ledegem",
    "country": "Belgium",
    "lat": 50.871882,
    "lon": 3.149169
  },
  {
    "id": "2596",
    "name": "Leglise",
    "country": "Belgium",
    "lat": 49.809857,
    "lon": 5.566723
  },
  {
    "id": "2597",
    "name": "Lendelede",
    "country": "Belgium",
    "lat": 50.886019,
    "lon": 3.232077
  },
  {
    "id": "2598",
    "name": "Lennik",
    "country": "Belgium",
    "lat": 50.813276,
    "lon": 4.163717
  },
  {
    "id": "2599",
    "name": "Lens",
    "country": "Belgium",
    "lat": 50.570441,
    "lon": 3.911374
  },
  {
    "id": "2600",
    "name": "Leopoldsburg",
    "country": "Belgium",
    "lat": 51.117318,
    "lon": 5.25057
  },
  {
    "id": "2601",
    "name": "Les Bons Villers",
    "country": "Belgium",
    "lat": 50.527825,
    "lon": 4.448227
  },
  {
    "id": "2602",
    "name": "Lessines",
    "country": "Belgium",
    "lat": 50.712552,
    "lon": 3.83311
  },
  {
    "id": "2603",
    "name": "Leuven",
    "country": "Belgium",
    "lat": 50.882155,
    "lon": 4.705854
  },
  {
    "id": "2604",
    "name": "Leuze-En-Hainaut",
    "country": "Belgium",
    "lat": 50.597201,
    "lon": 3.628767
  },
  {
    "id": "2605",
    "name": "Libin",
    "country": "Belgium",
    "lat": 49.97817,
    "lon": 5.238243
  },
  {
    "id": "2606",
    "name": "Libramont-Chevigny",
    "country": "Belgium",
    "lat": 49.946204,
    "lon": 5.422448
  },
  {
    "id": "2607",
    "name": "Lichtervelde",
    "country": "Belgium",
    "lat": 51.027884,
    "lon": 3.146262
  },
  {
    "id": "2608",
    "name": "Liedekerke",
    "country": "Belgium",
    "lat": 50.866356,
    "lon": 4.093129
  },
  {
    "id": "2609",
    "name": "Liege",
    "country": "Belgium",
    "lat": 50.631944,
    "lon": 5.590683
  },
  {
    "id": "2610",
    "name": "Lier",
    "country": "Belgium",
    "lat": 51.118417,
    "lon": 4.573747
  },
  {
    "id": "2611",
    "name": "Lierde",
    "country": "Belgium",
    "lat": 50.805505,
    "lon": 3.836583
  },
  {
    "id": "2612",
    "name": "Lierneux",
    "country": "Belgium",
    "lat": 50.307908,
    "lon": 5.785508
  },
  {
    "id": "2613",
    "name": "Lille",
    "country": "Belgium",
    "lat": 51.255712,
    "lon": 4.834196
  },
  {
    "id": "2614",
    "name": "Limbourg",
    "country": "Belgium",
    "lat": 50.611358,
    "lon": 5.937076
  },
  {
    "id": "2615",
    "name": "Lincent",
    "country": "Belgium",
    "lat": 50.721578,
    "lon": 5.027545
  },
  {
    "id": "2616",
    "name": "Linkebeek",
    "country": "Belgium",
    "lat": 50.76796,
    "lon": 4.345535
  },
  {
    "id": "2617",
    "name": "Lint",
    "country": "Belgium",
    "lat": 51.127675,
    "lon": 4.49807
  },
  {
    "id": "2618",
    "name": "Linter",
    "country": "Belgium",
    "lat": 50.820843,
    "lon": 5.042005
  },
  {
    "id": "2619",
    "name": "Lo-Reninge",
    "country": "Belgium",
    "lat": 50.960635,
    "lon": 2.775331
  },
  {
    "id": "2620",
    "name": "Lobbes",
    "country": "Belgium",
    "lat": 50.355897,
    "lon": 4.241945
  },
  {
    "id": "2621",
    "name": "Lochristi",
    "country": "Belgium",
    "lat": 51.103063,
    "lon": 3.857053
  },
  {
    "id": "2622",
    "name": "Lokeren",
    "country": "Belgium",
    "lat": 51.113259,
    "lon": 3.961324
  },
  {
    "id": "2623",
    "name": "Lommel",
    "country": "Belgium",
    "lat": 51.225627,
    "lon": 5.302057
  },
  {
    "id": "2624",
    "name": "Londerzeel",
    "country": "Belgium",
    "lat": 51.010569,
    "lon": 4.276403
  },
  {
    "id": "2625",
    "name": "Lontzen",
    "country": "Belgium",
    "lat": 50.677739,
    "lon": 6.012511
  },
  {
    "id": "2626",
    "name": "Lovendegem",
    "country": "Belgium",
    "lat": 51.101123,
    "lon": 3.625613
  },
  {
    "id": "2627",
    "name": "Lubbeek",
    "country": "Belgium",
    "lat": 50.88205,
    "lon": 4.828424
  },
  {
    "id": "2628",
    "name": "Lummen",
    "country": "Belgium",
    "lat": 50.995314,
    "lon": 5.183301
  },
  {
    "id": "2629",
    "name": "Maarkedal",
    "country": "Belgium",
    "lat": 50.795149,
    "lon": 3.640961
  },
  {
    "id": "2630",
    "name": "Maaseik",
    "country": "Belgium",
    "lat": 51.087873,
    "lon": 5.714886
  },
  {
    "id": "2631",
    "name": "Maasmechelen",
    "country": "Belgium",
    "lat": 50.968897,
    "lon": 5.67779
  },
  {
    "id": "2632",
    "name": "Machelen",
    "country": "Belgium",
    "lat": 50.902646,
    "lon": 4.444049
  },
  {
    "id": "2633",
    "name": "Maldegem",
    "country": "Belgium",
    "lat": 51.198114,
    "lon": 3.450441
  },
  {
    "id": "2634",
    "name": "Malle",
    "country": "Belgium",
    "lat": 51.293229,
    "lon": 4.713484
  },
  {
    "id": "2635",
    "name": "Malmedy",
    "country": "Belgium",
    "lat": 50.431512,
    "lon": 6.041545
  },
  {
    "id": "2636",
    "name": "Manage",
    "country": "Belgium",
    "lat": 50.493698,
    "lon": 4.238246
  },
  {
    "id": "2637",
    "name": "Manhay",
    "country": "Belgium",
    "lat": 50.288975,
    "lon": 5.662663
  },
  {
    "id": "2638",
    "name": "Marche-En-Famenne",
    "country": "Belgium",
    "lat": 50.209389,
    "lon": 5.343757
  },
  {
    "id": "2639",
    "name": "Marchin",
    "country": "Belgium",
    "lat": 50.467429,
    "lon": 5.239573
  },
  {
    "id": "2640",
    "name": "Martelange",
    "country": "Belgium",
    "lat": 49.811031,
    "lon": 5.724822
  },
  {
    "id": "2641",
    "name": "Mechelen",
    "country": "Belgium",
    "lat": 51.028669,
    "lon": 4.450171
  },
  {
    "id": "2642",
    "name": "Meerhout",
    "country": "Belgium",
    "lat": 51.124519,
    "lon": 5.073599
  },
  {
    "id": "2643",
    "name": "Meeuwen-Gruitrode",
    "country": "Belgium",
    "lat": 51.084435,
    "lon": 5.552224
  },
  {
    "id": "2644",
    "name": "Meise",
    "country": "Belgium",
    "lat": 50.961207,
    "lon": 4.315642
  },
  {
    "id": "2645",
    "name": "Meix-Devant-Virton",
    "country": "Belgium",
    "lat": 49.603663,
    "lon": 5.47006
  },
  {
    "id": "2646",
    "name": "Melle",
    "country": "Belgium",
    "lat": 50.996939,
    "lon": 3.796407
  },
  {
    "id": "2647",
    "name": "Menen",
    "country": "Belgium",
    "lat": 50.792592,
    "lon": 3.15428
  },
  {
    "id": "2648",
    "name": "Merbes-Le-Chateau",
    "country": "Belgium",
    "lat": 50.320945,
    "lon": 4.194635
  },
  {
    "id": "2649",
    "name": "Merchtem",
    "country": "Belgium",
    "lat": 50.951304,
    "lon": 4.247214
  },
  {
    "id": "2650",
    "name": "Merelbeke",
    "country": "Belgium",
    "lat": 50.974384,
    "lon": 3.740816
  },
  {
    "id": "2651",
    "name": "Merksplas",
    "country": "Belgium",
    "lat": 51.37043,
    "lon": 4.870214
  },
  {
    "id": "2652",
    "name": "Mesen",
    "country": "Belgium",
    "lat": 50.757518,
    "lon": 2.874043
  },
  {
    "id": "2653",
    "name": "Messancy",
    "country": "Belgium",
    "lat": 49.614824,
    "lon": 5.811304
  },
  {
    "id": "2654",
    "name": "Mettet",
    "country": "Belgium",
    "lat": 50.323175,
    "lon": 4.671263
  },
  {
    "id": "2655",
    "name": "Meulebeke",
    "country": "Belgium",
    "lat": 50.951079,
    "lon": 3.294905
  },
  {
    "id": "2656",
    "name": "Middelkerke",
    "country": "Belgium",
    "lat": 51.152354,
    "lon": 2.840473
  },
  {
    "id": "2657",
    "name": "Modave",
    "country": "Belgium",
    "lat": 50.473411,
    "lon": 5.301893
  },
  {
    "id": "2658",
    "name": "Moerbeke",
    "country": "Belgium",
    "lat": 51.182199,
    "lon": 3.944972
  },
  {
    "id": "2659",
    "name": "Mol",
    "country": "Belgium",
    "lat": 51.233723,
    "lon": 5.152778
  },
  {
    "id": "2660",
    "name": "Momignies",
    "country": "Belgium",
    "lat": 50.002557,
    "lon": 4.217514
  },
  {
    "id": "2661",
    "name": "Mons",
    "country": "Belgium",
    "lat": 50.452496,
    "lon": 3.971912
  },
  {
    "id": "2662",
    "name": "Mont-De-L'Enclus",
    "country": "Belgium",
    "lat": 50.738129,
    "lon": 3.50453
  },
  {
    "id": "2663",
    "name": "Mont-Saint-Guibert",
    "country": "Belgium",
    "lat": 50.637329,
    "lon": 4.623465
  },
  {
    "id": "2664",
    "name": "Montigny-Le-Tilleul",
    "country": "Belgium",
    "lat": 50.376383,
    "lon": 4.371061
  },
  {
    "id": "2665",
    "name": "Moorslede",
    "country": "Belgium",
    "lat": 50.880961,
    "lon": 3.07889
  },
  {
    "id": "2666",
    "name": "Morlanwelz",
    "country": "Belgium",
    "lat": 50.447594,
    "lon": 4.24366
  },
  {
    "id": "2667",
    "name": "Mortsel",
    "country": "Belgium",
    "lat": 51.174591,
    "lon": 4.461025
  },
  {
    "id": "2668",
    "name": "Mouscron",
    "country": "Belgium",
    "lat": 50.736353,
    "lon": 3.251034
  },
  {
    "id": "2669",
    "name": "Musson",
    "country": "Belgium",
    "lat": 49.5695,
    "lon": 5.681187
  },
  {
    "id": "2670",
    "name": "Namur",
    "country": "Belgium",
    "lat": 50.46046,
    "lon": 4.872596
  },
  {
    "id": "2671",
    "name": "Nandrin",
    "country": "Belgium",
    "lat": 50.517209,
    "lon": 5.400842
  },
  {
    "id": "2672",
    "name": "Nassogne",
    "country": "Belgium",
    "lat": 50.136699,
    "lon": 5.358937
  },
  {
    "id": "2673",
    "name": "Nazareth",
    "country": "Belgium",
    "lat": 50.956977,
    "lon": 3.609884
  },
  {
    "id": "2674",
    "name": "Neerpelt",
    "country": "Belgium",
    "lat": 51.228908,
    "lon": 5.459455
  },
  {
    "id": "2675",
    "name": "Neufchateau",
    "country": "Belgium",
    "lat": 49.85108,
    "lon": 5.43361
  },
  {
    "id": "2676",
    "name": "Neupre",
    "country": "Belgium",
    "lat": 50.544052,
    "lon": 5.488093
  },
  {
    "id": "2677",
    "name": "Nevele",
    "country": "Belgium",
    "lat": 51.057833,
    "lon": 3.553726
  },
  {
    "id": "2678",
    "name": "Niel",
    "country": "Belgium",
    "lat": 51.107297,
    "lon": 4.335663
  },
  {
    "id": "2679",
    "name": "Nieuwerkerken",
    "country": "Belgium",
    "lat": 50.879617,
    "lon": 5.204756
  },
  {
    "id": "2680",
    "name": "Nieuwpoort",
    "country": "Belgium",
    "lat": 51.12316,
    "lon": 2.767191
  },
  {
    "id": "2681",
    "name": "Nijlen",
    "country": "Belgium",
    "lat": 51.150842,
    "lon": 4.66369
  },
  {
    "id": "2682",
    "name": "Ninove",
    "country": "Belgium",
    "lat": 50.826093,
    "lon": 4.004793
  },
  {
    "id": "2683",
    "name": "Nivelles",
    "country": "Belgium",
    "lat": 50.596945,
    "lon": 4.332262
  },
  {
    "id": "2684",
    "name": "Ohey",
    "country": "Belgium",
    "lat": 50.435733,
    "lon": 5.166337
  },
  {
    "id": "2685",
    "name": "Olen",
    "country": "Belgium",
    "lat": 51.163488,
    "lon": 4.88575
  },
  {
    "id": "2686",
    "name": "Olne",
    "country": "Belgium",
    "lat": 50.587358,
    "lon": 5.731814
  },
  {
    "id": "2687",
    "name": "Onhaye",
    "country": "Belgium",
    "lat": 50.260423,
    "lon": 4.812139
  },
  {
    "id": "2688",
    "name": "Oosterzele",
    "country": "Belgium",
    "lat": 50.938764,
    "lon": 3.797176
  },
  {
    "id": "2689",
    "name": "Oostkamp",
    "country": "Belgium",
    "lat": 51.119375,
    "lon": 3.230235
  },
  {
    "id": "2690",
    "name": "Oostrozebeke",
    "country": "Belgium",
    "lat": 50.930642,
    "lon": 3.337156
  },
  {
    "id": "2691",
    "name": "Opglabbeek",
    "country": "Belgium",
    "lat": 51.040314,
    "lon": 5.571211
  },
  {
    "id": "2692",
    "name": "Opwijk",
    "country": "Belgium",
    "lat": 50.962421,
    "lon": 4.180823
  },
  {
    "id": "2693",
    "name": "Oreye",
    "country": "Belgium",
    "lat": 50.723094,
    "lon": 5.347294
  },
  {
    "id": "2694",
    "name": "Orp-Jauche",
    "country": "Belgium",
    "lat": 50.68995,
    "lon": 4.963234
  },
  {
    "id": "944",
    "name": "Ostend",
    "country": "Belgium",
    "lat": 51.22,
    "lon": 2.91
  },
  {
    "id": "2695",
    "name": "Ottignies-Louvain-La-Neuve",
    "country": "Belgium",
    "lat": 50.670364,
    "lon": 4.564293
  },
  {
    "id": "2696",
    "name": "Oud-Heverlee",
    "country": "Belgium",
    "lat": 50.81998,
    "lon": 4.686892
  },
  {
    "id": "2697",
    "name": "Oud-Turnhout",
    "country": "Belgium",
    "lat": 51.320759,
    "lon": 5.004269
  },
  {
    "id": "2698",
    "name": "Oudenaarde",
    "country": "Belgium",
    "lat": 50.853453,
    "lon": 3.620881
  },
  {
    "id": "2699",
    "name": "Oudenburg",
    "country": "Belgium",
    "lat": 51.186034,
    "lon": 3.012313
  },
  {
    "id": "2700",
    "name": "Oudergem",
    "country": "Belgium",
    "lat": 50.810169,
    "lon": 4.437948
  },
  {
    "id": "2701",
    "name": "Ouffet",
    "country": "Belgium",
    "lat": 50.444804,
    "lon": 5.465913
  },
  {
    "id": "2702",
    "name": "Oupeye",
    "country": "Belgium",
    "lat": 50.721031,
    "lon": 5.641368
  },
  {
    "id": "2703",
    "name": "Overijse",
    "country": "Belgium",
    "lat": 50.771276,
    "lon": 4.532724
  },
  {
    "id": "2704",
    "name": "Overpelt",
    "country": "Belgium",
    "lat": 51.200336,
    "lon": 5.393506
  },
  {
    "id": "2705",
    "name": "Paliseul",
    "country": "Belgium",
    "lat": 49.907698,
    "lon": 5.137012
  },
  {
    "id": "2706",
    "name": "Pecq",
    "country": "Belgium",
    "lat": 50.685132,
    "lon": 3.356907
  },
  {
    "id": "2707",
    "name": "Peer",
    "country": "Belgium",
    "lat": 51.128494,
    "lon": 5.461642
  },
  {
    "id": "2708",
    "name": "Pepingen",
    "country": "Belgium",
    "lat": 50.744218,
    "lon": 4.147656
  },
  {
    "id": "2709",
    "name": "Pepinster",
    "country": "Belgium",
    "lat": 50.572346,
    "lon": 5.797051
  },
  {
    "id": "2710",
    "name": "Peruwelz",
    "country": "Belgium",
    "lat": 50.529404,
    "lon": 3.56397
  },
  {
    "id": "2711",
    "name": "Perwez",
    "country": "Belgium",
    "lat": 50.634215,
    "lon": 4.789658
  },
  {
    "id": "2712",
    "name": "Philippeville",
    "country": "Belgium",
    "lat": 50.169202,
    "lon": 4.587826
  },
  {
    "id": "2713",
    "name": "Pittem",
    "country": "Belgium",
    "lat": 51.001086,
    "lon": 3.265549
  },
  {
    "id": "2714",
    "name": "Plombieres",
    "country": "Belgium",
    "lat": 50.725587,
    "lon": 5.949077
  },
  {
    "id": "2715",
    "name": "Pont-A-Celles",
    "country": "Belgium",
    "lat": 50.513898,
    "lon": 4.381193
  },
  {
    "id": "2716",
    "name": "Poperinge",
    "country": "Belgium",
    "lat": 50.86103,
    "lon": 2.691508
  },
  {
    "id": "2717",
    "name": "Profondeville",
    "country": "Belgium",
    "lat": 50.37514,
    "lon": 4.828476
  },
  {
    "id": "2718",
    "name": "Putte",
    "country": "Belgium",
    "lat": 51.050757,
    "lon": 4.636196
  },
  {
    "id": "2719",
    "name": "Puurs",
    "country": "Belgium",
    "lat": 51.06589,
    "lon": 4.305547
  },
  {
    "id": "2720",
    "name": "Quaregnon",
    "country": "Belgium",
    "lat": 50.437855,
    "lon": 3.858678
  },
  {
    "id": "2721",
    "name": "Quevy",
    "country": "Belgium",
    "lat": 50.366601,
    "lon": 3.954587
  },
  {
    "id": "2722",
    "name": "Quievrain",
    "country": "Belgium",
    "lat": 50.395861,
    "lon": 3.702321
  },
  {
    "id": "2723",
    "name": "Raeren",
    "country": "Belgium",
    "lat": 50.664795,
    "lon": 6.124377
  },
  {
    "id": "2724",
    "name": "Ramillies",
    "country": "Belgium",
    "lat": 50.656648,
    "lon": 4.885959
  },
  {
    "id": "2725",
    "name": "Ranst",
    "country": "Belgium",
    "lat": 51.192779,
    "lon": 4.590703
  },
  {
    "id": "2726",
    "name": "Ravels",
    "country": "Belgium",
    "lat": 51.41494,
    "lon": 5.025994
  },
  {
    "id": "2727",
    "name": "Rebecq",
    "country": "Belgium",
    "lat": 50.671487,
    "lon": 4.130252
  },
  {
    "id": "2728",
    "name": "Remicourt",
    "country": "Belgium",
    "lat": 50.685512,
    "lon": 5.34113
  },
  {
    "id": "2729",
    "name": "Rendeux",
    "country": "Belgium",
    "lat": 50.218833,
    "lon": 5.517774
  },
  {
    "id": "2730",
    "name": "Retie",
    "country": "Belgium",
    "lat": 51.267109,
    "lon": 5.076912
  },
  {
    "id": "2731",
    "name": "Riemst",
    "country": "Belgium",
    "lat": 50.805346,
    "lon": 5.592195
  },
  {
    "id": "2732",
    "name": "Rijkevorsel",
    "country": "Belgium",
    "lat": 51.35514,
    "lon": 4.767471
  },
  {
    "id": "2733",
    "name": "Rixensart",
    "country": "Belgium",
    "lat": 50.720743,
    "lon": 4.525631
  },
  {
    "id": "2734",
    "name": "Rochefort",
    "country": "Belgium",
    "lat": 50.156933,
    "lon": 5.169353
  },
  {
    "id": "2735",
    "name": "Roeselare",
    "country": "Belgium",
    "lat": 50.936876,
    "lon": 3.133629
  },
  {
    "id": "2736",
    "name": "Ronse",
    "country": "Belgium",
    "lat": 50.749718,
    "lon": 3.607693
  },
  {
    "id": "2737",
    "name": "Roosdaal",
    "country": "Belgium",
    "lat": 50.837583,
    "lon": 4.097335
  },
  {
    "id": "2738",
    "name": "Rotselaar",
    "country": "Belgium",
    "lat": 50.95958,
    "lon": 4.732383
  },
  {
    "id": "2739",
    "name": "Rouvroy",
    "country": "Belgium",
    "lat": 49.535489,
    "lon": 5.483905
  },
  {
    "id": "2740",
    "name": "Ruiselede",
    "country": "Belgium",
    "lat": 51.055129,
    "lon": 3.382305
  },
  {
    "id": "2741",
    "name": "Rumes",
    "country": "Belgium",
    "lat": 50.5445,
    "lon": 3.319727
  },
  {
    "id": "2742",
    "name": "Rumst",
    "country": "Belgium",
    "lat": 51.093837,
    "lon": 4.421183
  },
  {
    "id": "2743",
    "name": "Saint-Georges-Sur-Meuse",
    "country": "Belgium",
    "lat": 50.596724,
    "lon": 5.360541
  },
  {
    "id": "2744",
    "name": "Saint-Ghislain",
    "country": "Belgium",
    "lat": 50.487263,
    "lon": 3.800847
  },
  {
    "id": "2745",
    "name": "Saint-Josse-Ten-Noode",
    "country": "Belgium",
    "lat": 50.853777,
    "lon": 4.369764
  },
  {
    "id": "2746",
    "name": "Saint-Leger",
    "country": "Belgium",
    "lat": 49.618294,
    "lon": 5.676564
  },
  {
    "id": "2747",
    "name": "Saint-Nicolas",
    "country": "Belgium",
    "lat": 50.632253,
    "lon": 5.52643
  },
  {
    "id": "2748",
    "name": "Sainte-Ode",
    "country": "Belgium",
    "lat": 50.02505,
    "lon": 5.527947
  },
  {
    "id": "2749",
    "name": "Sambreville",
    "country": "Belgium",
    "lat": 50.446594,
    "lon": 4.62051
  },